address,z_address,bathrooms,bedrooms,finishedsqft,lastsolddate,lastsoldprice,latitude,longitude,neighborhood,totalrooms,usecode,yearbuilt,zestimate,zipcode
Address: 1160 Mission Street #2007,1160 Mission St UNIT 2007,2.0,2.0,1043.0,02/17/2016,1300000.0,37.778705,-122.412635,South of Market,4.0,Condominium,2007.0,1167508.0,94103.0
Address: 260 King Street #475,260 King St UNIT 475,1.0,1.0,903.0,02/17/2016,750000.0,37.777641,-122.393417,South of Market,3.0,Condominium,2004.0,823719.0,94107.0
Address: 560 Missouri Street #B,560 Missouri St # B,4.0,3.0,1425.0,02/17/2016,1495000.0,37.759198,-122.396516,Potrero Hill,6.0,Condominium,2003.0,1708594.0,94107.0
Address: 350 Missouri Street,350 Missouri St,3.0,3.0,2231.0,02/17/2016,2700000.0,37.761886,-122.396769,Potrero Hill,10.0,SingleFamily,1927.0,2411236.0,94107.0
Address: 3658 Folsom Street,3658 Folsom St,3.0,3.0,1300.0,02/17/2016,1530000.0,37.740795,-122.413453,Bernal Heights,4.0,SingleFamily,1900.0,1918539.0,94110.0
Address: 156 Lowell Street,156 Lowell St,1.0,2.0,1250.0,02/17/2016,460000.0,37.710226,-122.446027,Crocker Amazon,5.0,SingleFamily,1924.0,703392.0,94112.0
Address: 735 Lakeview Avenue,735 Lakeview Ave,1.0,3.0,1032.0,02/17/2016,532000.0,37.718024,-122.460332,Oceanview,6.0,SingleFamily,1939.0,741715.0,94112.0
Address: 430 Capistrano Avenue,430 Capistrano Ave,1.0,2.0,1200.0,02/17/2016,1050000.0,37.725204,-122.439273,Mission Terrace,5.0,SingleFamily,1924.0,1023650.0,94112.0
Address: 4135 23rd Street,4135 23rd St,3.5,4.0,2700.0,02/17/2016,3500000.0,37.752602,-122.435011,Noe Valley,9.0,SingleFamily,1912.0,3604950.0,94114.0
Address: 440 Steiner Street,440 Steiner St,2.0,3.0,1854.1369997975999,02/17/2016,1500000.0,37.773237,-122.432302,Hayes Valley,7.0,Condominium,1890.0,1547314.0,94117.0
Address: 414 Somerset Street,414 Somerset St,1.0,3.0,1798.0,02/17/2016,848000.0,37.726252,-122.407649,Portola,6.606399421583944,SingleFamily,1953.0,933506.0,94134.0
Address: 300 Berry Street #813,300 Berry St UNIT 813,1.0,1.0,761.0,02/17/2016,1000000.0,37.773929,-122.39624,South of Market,4.0,Condominium,2008.0,931039.0,94158.0
Address: 370 Church Street #F,370 Church St APT F,1.0,1.0,780.0,08/12/2015,863000.0,37.765062,-122.429077,Eureka Valley - Dolores Heights - Castro,4.0,Condominium,1981.0,847894.0,94114.0
Address: 10 22nd Avenue,10 22nd Ave,5.0,5.0,5786.0,02/16/2016,4888000.0,37.787088,-122.481741,Lake,12.0,SingleFamily,1926.0,7159444.0,94121.0
Address: 1847 10th Avenue,1847 10th Ave,2.0,2.0,1688.0,02/16/2016,1000000.0,37.753756,-122.466995,Inner Sunset,6.0,SingleFamily,1927.0,1106369.0,94122.0
Address: 442 Mangels Avenue,442 Mangels Ave,3.0,4.0,1619.0,02/16/2016,210000.0,37.733307,-122.447605,Sunnyside,7.0,SingleFamily,1966.0,1483668.0,94127.0
Address: 650 Turk Street #706,650 Turk St UNIT 706,1.0,0.0,398.0,02/12/2016,525000.0,37.782379,-122.420166,Van Ness - Civic Center,4.0,Condominium,2008.0,565702.0,94102.0
Address: 66 Rondel Place,66 Rondel Pl,4.5,4.0,2615.0,02/12/2016,2300000.0,37.763849,-122.421259,Mission,9.0,SingleFamily,1906.0,1613306.0,94103.0
Address: 1610 Sacramento Street #5,1610 Sacramento St APT 5,2.0,2.0,1252.0,02/12/2016,1450000.0,37.791904,-122.419806,Nob Hill,4.0,Condominium,2002.0,1386684.0,94109.0
Address: 1536 Pacific Avenue #1,1536 Pacific Ave # 1,2.0,3.0,1931.4379881370114,02/12/2016,2500000.0,37.795383,-122.420623,Nob Hill,6.0,Condominium,2009.0,2125825.0,94109.0
Address: 541 Prentiss Street,541 Prentiss St,2.0,3.0,1200.0,02/12/2016,171000.0,37.73639,-122.412103,Bernal Heights,5.0,SingleFamily,1953.0,1261487.0,94110.0
Address: 31 Hartford Street,31 Hartford St,1.0,2.0,1265.0,02/12/2016,871500.0,37.76207,-122.43369,Eureka Valley - Dolores Heights - Castro,5.0,Condominium,1902.0,1262136.0,94114.0
Address: 1600 Webster Street #106,1600 Webster St APT 106,1.0,1.0,859.0,02/12/2016,900000.0,37.78568,-122.430955,Lower Pacific Heights,4.0,Condominium,2005.0,820965.0,94115.0
Address: 233 18th Avenue,233 18th Ave,1.0,2.0,1308.0,02/12/2016,1020000.0,37.783586,-122.477794,Central Richmond,5.0,Condominium,1914.0,1077432.0,94121.0
Address: 248 17th Avenue,248 17th Ave,1.5,2.0,1429.0,02/12/2016,1410500.0,37.783401,-122.476049,Central Richmond,6.0,Condominium,1922.0,1170744.0,94121.0
Address: 1374 45th Avenue,1374 45th Ave,1.0,3.0,1771.0,02/12/2016,951000.0,37.761002,-122.504565,Outer Sunset,8.0,SingleFamily,1905.0,956441.0,94122.0
Address: 1087 Palou Avenue,1087 Palou Ave,2.0,3.0,1452.0,02/12/2016,430000.0,37.728354,-122.381454,Bayview,8.0,SingleFamily,1900.0,536665.0,94124.0
Address: 1486 Underwood Avenue,1486 Underwood Ave,2.0,3.0,1115.0,02/12/2016,680000.0,37.728777,-122.389531,Bayview,6.0,SingleFamily,1931.0,631581.0,94124.0
Address: 350 Lansdale Avenue,350 Lansdale Ave,3.0,3.0,2378.0,02/12/2016,1440000.0,37.735851,-122.458653,Westwood Highlands,8.0,SingleFamily,1940.0,1709182.0,94127.0
Address: 120 Ulloa Street,120 Ulloa St,2.5,2.0,2063.0,02/12/2016,1700000.0,37.744348,-122.455305,Forest Hill Extension,10.0,SingleFamily,1937.0,1755644.0,94127.0
Address: 159 Middlefield Drive,159 Middlefield Dr,3.0,3.0,2200.0,02/12/2016,234000.0,37.731436,-122.486486,Lakeshore,6.0,SingleFamily,1950.0,1455842.0,94132.0
Address: 8 Dunsmuir Street,8 Dunsmuir St,1.0,2.0,1250.0,02/12/2016,700000.0,37.730809,-122.414514,Portola,5.0,SingleFamily,1936.0,964978.0,94134.0
Address: 22 West View Avenue,22 W View Ave,1.0,2.0,970.0,02/12/2016,744000.0,37.730916,-122.418729,Portola,5.0,SingleFamily,1943.0,736105.0,94134.0
Address: 4160 17th Street,4160 17th St,2.0,2.0,911.0,02/11/2016,1100000.0,37.762498,-122.438686,Corona Heights,4.0,Condominium,1904.0,938211.0,94114.0
Address: 1315 21st Avenue,1315 21st Ave,1.25,2.0,1621.0,02/11/2016,1325000.0,37.763108,-122.479527,Central Sunset,6.0,SingleFamily,1911.0,1225848.0,94122.0
Address: 4229 26th Street,4229 26th St,3.0,3.0,2048.0,02/11/2016,2525000.0,37.747788,-122.434812,Noe Valley,7.0,SingleFamily,1900.0,2641338.0,94131.0
Address: 361 Texas Street,361 Texas St,2.0,3.0,2080.0,02/10/2016,2300000.0,37.761845,-122.395171,Potrero Hill,7.0,SingleFamily,1906.0,2058271.0,94107.0
Address: 667 Shotwell Street #A,667 Shotwell St # A,1.0,1.0,1212.0,02/10/2016,775000.0,37.757851,-122.415629,Mission,4.0,Condominium,1890.0,1197178.0,94110.0
Address: 2919 Pacific Avenue #6,2919 Pacific Ave APT 6,2.0,2.0,1125.0,02/10/2016,1457000.0,37.79197,-122.44344,Pacific Heights,4.0,Condominium,1905.0,1488108.0,94115.0
Address: 2455 14th Avenue,2455 14th Ave,3.75,4.0,1846.0,02/10/2016,1525000.0,37.742271,-122.470518,West Portal,5.0,SingleFamily,1932.0,1195679.0,94116.0
Address: 30 Beaumont Avenue,30 Beaumont Ave,1.0,3.0,1164.0,02/10/2016,550000.0,37.780933,-122.454866,Lone Mountain,6.0,SingleFamily,1922.0,1247699.0,94118.0
Address: 108 16th Avenue,108 16th Ave,5.0,7.0,4808.0,02/10/2016,3800000.0,37.785945,-122.475319,Lake,15.0,MultiFamily2To4,1914.0,4498161.0,94118.0
Address: 766 30th Avenue,766 30th Ave,4.0,4.0,2520.0,02/10/2016,1900000.0,37.774837,-122.489397,Central Richmond,8.0,SingleFamily,1927.0,1931715.0,94121.0
Address: 601 Van Ness Avenue #629,601 Van Ness Ave APT 629,1.0,1.0,706.0,02/09/2016,620000.0,37.781386,-122.421406,Van Ness - Civic Center,3.0,Condominium,1982.0,623886.0,94102.0
Address: 260 King Street #815,260 King St UNIT 815,1.0,1.0,659.6977094929607,02/09/2016,800000.0,37.777641,-122.393417,South of Market,3.0,Condominium,2004.0,807995.0,94107.0
Address: 2040 Fell Street #12,2040 Fell St APT 12,1.0,2.0,1593.0,02/09/2016,872500.0,37.772597,-122.451587,North Panhandle,4.0,Condominium,1925.0,996489.0,94117.0
Address: 784 Spruce Street,784-786 Spruce St,3.0,8.0,2600.0,02/09/2016,1535000.0,37.780606,-122.452663,Lone Mountain,10.0,MultiFamily2To4,1927.0,1524759.0,94118.0
Address: 1444 17th Avenue #101,1444 17th Ave # 101,3.0,3.0,1902.0,02/09/2016,1600000.0,37.760979,-122.474469,Inner Sunset,6.0,Condominium,1996.0,1419587.0,94122.0
Address: 1618 12th Avenue,1618 12th Ave,3.0,4.0,2900.0,02/09/2016,1625000.0,37.757906,-122.468775,Inner Sunset,8.0,Condominium,2001.0,1597121.0,94122.0
Address: 5696 Diamond Heights Boulevard,5696 Diamond Heights Blvd,3.5,3.0,2435.0,02/09/2016,2050000.0,37.738831,-122.439262,Diamond Heights,7.0,SingleFamily,1980.0,2016900.0,94131.0
Address: 901 Post Street #2,901 Post St # 2,2.0,3.0,1207.0,02/08/2016,885000.0,37.787089,-122.416761,Downtown,9.0,Condominium,2002.0,1626076.0,94109.0
Address: 66 Cleary Court #1504,66 Cleary Ct APT 1504,2.0,3.0,1106.0,02/08/2016,960000.0,37.784298,-122.427058,Western Addition,6.0,Condominium,1963.0,957064.0,94109.0
Address: 1800 Bryant Street #202,1800 Bryant St STE 202,2.0,1.0,935.0,02/08/2016,825000.0,37.764088,-122.410828,Mission,3.0,Condominium,2000.0,889532.0,94110.0
Address: 3919 17th Street,3919 17th St,1.0,2.0,968.0,02/08/2016,1065000.0,37.76241,-122.433456,Eureka Valley - Dolores Heights - Castro,4.0,MultiFamily2To4,1910.0,989982.0,94114.0
Address: 325 Locust Street,325 Locust St,2.0,3.0,1950.0,02/08/2016,1925000.0,37.787916,-122.452338,Presidio Heights,7.0,Condominium,1905.0,2521256.0,94118.0
Address: 50 Longview Court,50 Longview Ct,2.0,4.0,1703.0,02/08/2016,1250000.0,37.748415,-122.450795,Midtown Terrace,8.0,SingleFamily,1955.0,1358996.0,94131.0
Address: 2243 Franklin Street,2243 Franklin St,2.0,2.0,1463.0,02/05/2016,1950000.0,37.795139,-122.425309,Pacific Heights,7.0,Condominium,1900.0,1922387.0,94109.0
Address: 576 Brunswick Street,576 Brunswick St,1.0,2.0,1200.0,02/05/2016,609000.0,37.710208,-122.445075,Crocker Amazon,5.0,SingleFamily,1931.0,637413.0,94112.0
Address: 79 Seward Street,79 Seward St,2.0,3.0,2650.0,02/05/2016,2350000.0,37.758626,-122.440801,Eureka Valley - Dolores Heights - Castro,8.0,SingleFamily,1929.0,2211797.0,94114.0
Address: 2105 Buchanan Street #6,2105 Buchanan St APT 6,2.0,3.0,1700.0,02/05/2016,1770000.0,37.789597,-122.430787,Pacific Heights,5.0,Condominium,1921.0,1137507.0,94115.0
Address: 2017 Buchanan Street,2017 Buchanan St,4.0,4.0,2850.0,02/05/2016,2800000.0,37.788913,-122.430728,Lower Pacific Heights,7.0,Condominium,1890.0,3032479.0,94115.0
Address: 1015 Ashbury Street #2,1015 Ashbury St APT 2,2.0,2.0,1252.0,02/05/2016,1350000.0,37.76432,-122.446342,Parnassus - Ashbury,4.0,Condominium,1913.0,1300995.0,94117.0
Address: 170 Bridgeview Drive,170 Bridgeview Dr,2.0,3.0,1297.0,02/05/2016,725000.0,37.735503,-122.397062,Silver Terrace,6.0,SingleFamily,1964.0,797170.0,94124.0
Address: 884 Ingerson Avenue,884 Ingerson Ave,3.0,5.0,1789.0,02/05/2016,850000.0,37.71805,-122.390617,Bayview,8.0,SingleFamily,1964.0,910894.0,94124.0
Address: 475 Princeton Street,475 Princeton St,1.0,2.0,1254.0,02/05/2016,860000.0,37.72396,-122.413872,Portola,5.0,SingleFamily,1949.0,789444.0,94134.0
Address: 333 1st Street #1702,333 1st St UNIT 1702,1.0,1.0,713.0,02/04/2016,885000.0,37.787031,-122.393642,South Beach,3.0,Condominium,2004.0,903954.0,94105.0
Address: 861 Rhode Island Street #A,961A Rhode Island St,2.5,4.0,2166.0,06/11/2015,1600000.0,37.757681,-122.401578,Potrero Hill,11.0,MultiFamily2To4,1908.0,1599122.0,94107.0
Address: 415 Amherst Street,415 Amherst St,1.0,2.0,1000.0,02/04/2016,760000.0,37.724352,-122.415124,Portola,4.0,SingleFamily,1949.0,765401.0,94134.0
Address: 201 Holly Park Circle,201 Holly Park Cir,2.0,3.0,2250.0,02/03/2016,227500.0,37.737764,-122.418634,Bernal Heights,8.0,SingleFamily,1910.0,1402002.0,94110.0
Address: 30 Otsego Avenue,30 Otsego Ave,2.0,3.0,1806.0,02/03/2016,1300000.0,37.726945,-122.439334,Mission Terrace,7.0,SingleFamily,1924.0,1211468.0,94112.0
Address: 80 Venus Street,80 Venus St,1.5,3.0,1200.0,02/03/2016,810000.0,37.731771,-122.397584,Silver Terrace,5.0,SingleFamily,1941.0,696627.0,94124.0
Address: 1816 Castro Street,1816 Castro St,1.0,2.0,884.0,02/03/2016,850000.0,37.747035,-122.433868,Noe Valley,5.0,Condominium,1918.0,1027971.0,94131.0
Address: 149 Laidley Street,149 Laidley St,2.0,3.0,2100.0,02/03/2016,1950000.0,37.739623,-122.428899,Glen Park,10.0,SingleFamily,1900.0,1880749.0,94131.0
Address: 737 Tehama Street #1,737 Tehama St # 1,2.0,2.0,977.0,02/02/2016,1030000.0,37.775184,-122.411567,South of Market,5.0,Condominium,2006.0,1004132.0,94103.0
Address: 319 De Long Street,319 De Long St,1.0,2.0,875.0,02/02/2016,565000.0,37.709411,-122.465031,Outer Mission,4.0,SingleFamily,1950.0,642369.0,94112.0
Address: 1655 48th Avenue,1655 48th Ave,1.0,2.0,1230.214532867045,02/02/2016,762000.0,37.755586,-122.508063,Outer Sunset,4.0,SingleFamily,1904.0,711217.0,94122.0
Address: 4219 Folsom Street,4219 Folsom St,2.0,3.0,1539.0,02/01/2016,950000.0,37.734334,-122.413534,Bernal Heights,7.0,SingleFamily,1976.0,965984.0,94110.0
Address: 403 Main Street #518N,403 Main St APT 518N,2.0,2.0,1118.0,01/29/2016,1415000.0,37.788008,-122.389643,South Beach,5.0,Condominium,1997.0,1277409.0,94105.0
Address: 188 Minna Street #38C,188 Minna St APT 38C,2.5,2.0,1670.0,01/29/2016,7500000.0,37.786289,-122.401374,Yerba Buena,5.0,Condominium,2005.0,4118863.0,94105.0
Address: 1200 Gough Street #22B,1200 Gough St APT 22B,1.0,0.0,550.0,01/29/2016,650000.0,37.78482,-122.423994,Van Ness - Civic Center,2.0,Condominium,1966.0,667585.0,94109.0
Address: 979 Guerrero Street,979 Guerrero St,2.0,3.0,1440.0,01/29/2016,1275000.0,37.755554,-122.42316,Mission,7.0,Condominium,1885.0,1472631.0,94110.0
Address: 1940 Buchanan Street,1940 Buchanan St,1.0,3.0,1480.0,01/29/2016,1250000.0,37.788038,-122.430024,Lower Pacific Heights,5.0,Condominium,1904.0,1574733.0,94115.0
Address: 2275 47th Avenue,2275 47th Ave,2.5,4.0,2193.0,01/29/2016,1225000.0,37.744067,-122.506187,Outer Parkside,7.0,SingleFamily,1962.0,1358925.0,94116.0
Address: 988 Fulton Street #326,988 Fulton St APT 326,1.0,1.0,417.0,01/29/2016,555000.0,37.778034,-122.43251,Western Addition,5.0,Condominium,1999.0,588432.0,94117.0
Address: 487 19th Avenue,487 19th Ave,4.0,4.0,2596.0,01/29/2016,1900000.0,37.778728,-122.478448,Central Richmond,9.0,SingleFamily,1916.0,2102133.0,94121.0
Address: 448 Gold Mine Drive,448 Gold Mine Dr,3.0,4.0,2200.0,01/29/2016,1558000.0,37.739244,-122.4371,Diamond Heights,7.0,SingleFamily,1968.0,1775216.0,94131.0
Address: 8200 Oceanview Terrace #310,8200 Oceanview Ter APT 310,2.0,2.0,969.0,01/29/2016,658000.0,37.71048,-122.467645,Ingleside Heights,4.0,Condominium,2002.0,629228.0,94132.0
Address: 750 Delano Avenue,750 Delano Ave,1.0,2.0,840.0,01/28/2016,738000.0,37.719505,-122.445759,Outer Mission,4.0,SingleFamily,1987.0,715379.0,94112.0
Address: 5 Lobos Street,5 Lobos St,2.0,4.0,1726.0,01/28/2016,950000.0,37.714682,-122.452504,Oceanview,7.0,SingleFamily,1974.0,939221.0,94112.0
Address: 4524 Balboa Street,4524 Balboa St,1.0,2.0,1200.0,01/28/2016,961000.0,37.775504,-122.507477,Outer Richmond,5.0,SingleFamily,1918.0,913987.0,94121.0
Address: 527 Randolph Street,527 Randolph St,1.0,2.0,950.0,01/28/2016,695500.0,37.714051,-122.467584,Ingleside Heights,4.0,SingleFamily,1947.0,643848.0,94132.0
Address: 1407 Montgomery Street #2,1407 Montgomery St APT 2,1.0,1.0,1000.0,01/28/2016,976000.0,37.802299,-122.404941,Telegraph Hill,3.0,Condominium,1870.0,1044112.0,94133.0
Address: 574 Natoma Street #102,574 Natoma St APT 102,1.0,0.0,376.0,01/27/2016,502000.0,37.779014,-122.409446,South of Market,1.0,Condominium,2012.0,513968.0,94103.0
Address: 65 Bishop Street,65 Bishop St,1.0,3.0,800.0,01/27/2016,675000.0,37.718075,-122.404179,Visitacion Valley,4.0,SingleFamily,1900.0,692286.0,94134.0
Address: 701 Pennsylvania Avenue,701 Pennsylvania Ave # T13,2.0,1.0,842.0,03/24/2015,640000.0,37.75738,-122.39283,Potrero Hill,2.0,Condominium,1999.0,905401.0,94107.0
Address: 88 King Street #1121,88 King St UNIT 1121,2.0,2.0,1111.0,01/26/2016,1650000.0,37.780117,-122.389648,South Beach,4.0,MultiFamily2To4,2000.0,1376614.0,94107.0
Address: 57 Moneta Way,57 Moneta Way,1.0,4.0,1325.0,01/26/2016,860000.0,37.712918,-122.449446,Outer Mission,6.0,SingleFamily,1929.0,932005.0,94112.0
Address: 164 Seville Street,164 Seville St,3.0,3.0,2234.0,01/26/2016,1125000.0,37.711727,-122.437085,Crocker Amazon,3.0,SingleFamily,1924.0,917185.0,94112.0
Address: 145 Alpine Terrace,145-147 Alpine Ter,5.5,6.0,4749.0,01/26/2016,5100000.0,37.768186,-122.437144,Buena Vista Park,10.0,SingleFamily,2007.0,4791629.0,94117.0
Address: 3023 Broderick Street,3023 Broderick St,2.5,3.0,1591.0,01/26/2016,1800000.0,37.798244,-122.44452,Cow Hollow,9.0,Condominium,1938.0,2145649.0,94123.0
Address: 4173 Cesar Chavez Street,4173 Cesar Chavez St,4.0,4.0,3480.0,01/26/2016,4500000.0,37.747092,-122.432912,Noe Valley,8.0,SingleFamily,1900.0,2962385.0,94131.0
Address: 830 Alabama Street #B,830 Alabama St # B,2.0,3.0,1853.0,01/25/2016,1370000.0,37.75816,-122.411765,Mission,9.0,Condominium,1900.0,1642925.0,94110.0
Address: 95 Stoneyford Avenue,95 Stoneyford Ave,2.0,3.0,1400.0,01/25/2016,910000.0,37.729425,-122.42111,Excelsior,6.0,SingleFamily,1942.0,863116.0,94112.0
Address: 518 Oak Street,518 Oak St,1.0,2.0,1105.0,01/22/2016,1475000.0,37.774467,-122.428491,Hayes Valley,6.0,SingleFamily,1870.0,1365025.0,94102.0
Address: 1160 Mission Street #1908,1160 Mission St UNIT 1908,2.0,2.0,1201.0,01/22/2016,1475000.0,37.778705,-122.412635,South of Market,4.0,Condominium,2008.0,1418851.0,94103.0
Address: 451 Kansas Street #461,451 Kansas St UNIT 461,1.0,0.0,450.0,01/22/2016,640000.0,37.764114,-122.402984,Potrero Hill,2.0,Condominium,2007.0,631335.0,94107.0
Address: 2002 Pacific Avenue #4,2002 Pacific Ave APT 4,3.5,3.0,3291.0,01/22/2016,4200000.0,37.794429,-122.428513,Pacific Heights,7.0,Condominium,1961.0,4163277.0,94109.0
Address: 554 Anderson Street,554 Anderson St,1.0,2.0,1015.0,01/22/2016,920000.0,37.736454,-122.415593,Bernal Heights,5.0,SingleFamily,1910.0,738780.0,94110.0
Address: 566 South Van Ness Avenue #9,566 S Van Ness Ave APT 9,2.0,2.0,941.0,01/22/2016,945000.0,37.763992,-122.417823,Mission,5.0,Condominium,2007.0,1000174.0,94110.0
Address: 624 Hampshire Street,624 Hampshire St,1.0,2.0,962.0,01/22/2016,1250000.0,37.761456,-122.408461,Mission,5.0,SingleFamily,1900.0,1082093.0,94110.0
Address: 40 Mirabel Avenue,40 Mirabel Ave,2.0,2.0,1393.0,01/22/2016,1530000.0,37.746247,-122.416564,Bernal Heights,6.0,SingleFamily,1924.0,1481020.0,94110.0
Address: 712 Dorado Terrace #53,712 Dorado Ter # 53,2.5,2.0,1397.8994270753756,01/22/2016,780000.0,37.725575,-122.4616,Mount Davidson Manor,4.0,Condominium,1985.0,773173.0,94112.0
Address: 264 Grand View Avenue,264 Grand View Ave,1.0,1.0,590.0,01/22/2016,1193000.0,37.754001,-122.441489,Twin Peaks,5.0,SingleFamily,1907.0,1064070.0,94114.0
Address: 4450 24th Street,4450 24th St,3.0,4.0,2500.0,01/22/2016,1400000.0,37.751072,-122.441843,Noe Valley,5.0,SingleFamily,1900.0,2088377.0,94114.0
Address: 584 Sanchez Street,584-588 Sanchez St,4.0,4.0,2610.0,01/22/2016,2210000.0,37.759799,-122.43077,Eureka Valley - Dolores Heights - Castro,13.0,MultiFamily2To4,1900.0,3230417.0,94114.0
Address: 300 Castro Street,300 Castro St,3.0,4.0,2451.0,01/22/2016,2400000.0,37.763918,-122.435614,Corona Heights,12.0,Miscellaneous,1900.0,2089411.0,94114.0
Address: 2319 39th Avenue,2319 39th Ave,2.0,4.0,1362.0,01/22/2016,890000.0,37.743541,-122.497548,Outer Parkside,6.0,SingleFamily,1955.0,1233120.0,94116.0
Address: 27 Cutler Avenue,27 Cutler Ave,3.0,4.0,1622.0,01/28/2016,1325000.0,37.736824,-122.505856,Outer Parkside,7.116520373343278,SingleFamily,1949.0,751906.0,94116.0
Address: 1535 Oak Street #2,1535 Oak St APT 2,1.0,1.0,765.0,01/22/2016,815000.0,37.771928,-122.4446,Haight-Ashbury,12.0,Condominium,1924.0,940621.0,94117.0
Address: 558 17th Avenue,558-560 17TH Ave,3.0,5.0,1990.0,01/22/2016,1240000.0,37.777463,-122.47562,Central Richmond,8.0,MultiFamily2To4,1916.0,1810327.0,94121.0
Address: 1722 31st Avenue,1722 31st Ave,2.0,4.0,1824.0,01/22/2016,1700000.0,37.755071,-122.489092,Central Sunset,6.0,SingleFamily,1940.0,965204.0,94122.0
Address: 17 San Andreas Way,17 San Andreas Way,4.5,5.0,4095.0,01/22/2016,3750000.0,37.734454,-122.463624,St. Francis Wood,9.0,SingleFamily,1937.0,4381290.0,94127.0
Address: 319 Arleta Avenue,319 Arleta Ave,3.0,5.0,1875.0,01/22/2016,417000.0,37.714392,-122.409432,Visitacion Valley,7.0,SingleFamily,1989.0,862924.0,94134.0
Address: 4390 26th Street,4390 26th St,3.0,5.0,2837.0,01/22/2016,2600000.0,37.748021,-122.437943,Noe Valley,9.0,SingleFamily,1928.0,2706923.0,94131.0
Address: 250 King Street #1008,250 King St UNIT 1008,1.0,1.0,787.0,01/21/2016,825000.0,37.777374,-122.393157,South of Market,3.0,Condominium,2004.0,794744.0,94107.0
Address: 724 Noe Street,724 Noe St,2.0,3.0,1577.0,01/21/2016,1680000.0,37.757402,-122.432758,Eureka Valley - Dolores Heights - Castro,6.0,SingleFamily,1927.0,1934498.0,94114.0
Address: 855 La Playa Street #162,855 La Playa St APT 162,1.0,1.0,805.0,01/21/2016,578000.0,37.772199,-122.510375,Outer Richmond,4.0,Condominium,1982.0,587098.0,94121.0
Address: 855 La Playa Street #360,855 La Playa St APT 360,2.0,2.0,1193.0,01/21/2016,750000.0,37.772199,-122.510375,Outer Richmond,4.0,Condominium,1982.0,851710.0,94121.0
Address: 4220 Irving Street,4220 Irving St,2.0,3.0,1675.0,01/21/2016,1150000.0,37.762654,-122.503312,Outer Sunset,7.0,SingleFamily,1950.0,966107.0,94122.0
Address: 1423 Oakdale Avenue,1423 Oakdale Ave,2.0,3.0,1125.0,01/21/2016,638000.0,37.732554,-122.38726,Bayview,4.0,SingleFamily,1938.0,601102.0,94124.0
Address: 15 Bishop Street,15 Bishop St,3.0,4.0,2200.0,01/21/2016,851000.0,37.718594,-122.403955,Visitacion Valley,8.0,SingleFamily,1980.0,873975.0,94134.0
Address: 9 Edgar Place,9 Edgar Pl,4.0,4.0,1800.0,01/20/2016,1175000.0,37.720695,-122.452421,Ingleside,8.0,SingleFamily,1925.0,937445.0,94112.0
Address: 1949 McAllister Street,1949 Mcallister St,3.0,2.0,2160.0,01/20/2016,1505000.0,37.776786,-122.444044,North Panhandle,7.0,Condominium,1900.0,2315675.0,94115.0
Address: 10 Miller Place #701,10 Miller Pl APT 701,2.0,2.0,1000.0,01/19/2016,1290000.0,37.793228,-122.40891,Nob Hill,4.0,MultiFamily2To4,1963.0,1795546.0,94108.0
Address: 766 40th Avenue,766 40th Ave,1.0,2.0,1034.0,01/19/2016,1000000.0,37.774327,-122.500107,Outer Richmond,5.0,SingleFamily,1924.0,1101153.0,94121.0
Address: 22 Magnolia Street,22 Magnolia St,1.0,2.0,1231.0,01/19/2016,1375000.0,37.80106,-122.43171,Marina,5.0,Condominium,1927.0,1441734.0,94123.0
Address: 170 King Street #928,170 King St UNIT 928,2.0,2.0,1092.0,01/15/2016,1262500.0,37.77898,-122.391754,South Beach,4.0,Condominium,2007.0,1312018.0,94107.0
Address: 29 Cumberland Street,29 Cumberland St,1.0,3.0,1525.0,01/15/2016,1300000.0,37.758876,-122.424258,Mission,6.0,Condominium,1907.0,1537770.0,94110.0
Address: 101 Lombard Street #610W,101 Lombard St APT 610W,1.0,1.0,1030.0,01/15/2016,876500.0,37.80347,-122.40409,Telegraph Hill,4.0,Condominium,1984.0,1028719.0,94111.0
Address: 89 Theresa Street,89 Theresa St,1.0,2.0,1088.0,01/15/2016,875000.0,37.728438,-122.434292,Mission Terrace,5.0,SingleFamily,1923.0,876871.0,94112.0
Address: 2200 Sacramento Street #901,2200 Sacramento St APT 901,2.0,1.0,952.0,01/15/2016,1125000.0,37.790681,-122.429498,Pacific Heights,4.0,Condominium,1964.0,1170349.0,94115.0
Address: 2299 Sacramento Street #3,2299 Sacramento St APT 3,1.0,2.0,1406.0,01/15/2016,1150000.0,37.790011,-122.43048,Pacific Heights,5.0,Condominium,1913.0,1262766.0,94115.0
Address: 2133 Pine Street,2133-2137 Pine St,7.0,9.0,5085.0,01/15/2016,1550000.0,37.787988,-122.431495,Lower Pacific Heights,15.0,MultiFamily2To4,1900.0,5461047.0,94115.0
Address: 2670 47th Avenue,2670 47th Ave,3.0,4.0,1546.0,01/15/2016,1075000.0,37.736702,-122.505008,Outer Parkside,7.0,SingleFamily,1944.0,1013806.0,94116.0
Address: 107 19th Avenue,107 19th Ave,2.0,2.0,1125.0,01/15/2016,1150000.0,37.785783,-122.478874,Lake,4.0,Condominium,1921.0,1292703.0,94121.0
Address: 1501 Greenwich Street #304,1501 Greenwich St UNIT 304,2.0,2.0,1310.3603069134988,01/15/2016,1150000.0,37.80009,-122.424682,Cow Hollow,4.0,Condominium,2008.0,1216690.0,94123.0
Address: 1738 Lombard Street #T4,1738 Lombard St # T4,2.0,2.0,1078.0,01/15/2016,1400000.0,37.80091,-122.430229,Marina,4.0,Condominium,2004.0,1349828.0,94123.0
Address: 3725 Webster Street,3725 Webster St,2.0,3.0,1717.0,01/15/2016,1963000.0,37.805118,-122.435725,Marina,13.0,SingleFamily,1938.0,2546902.0,94123.0
Address: 3027 Webster Street,3027 Webster St,3.5,3.0,2002.0,01/15/2016,2350000.0,37.798579,-122.43433,Cow Hollow,9.0,SingleFamily,1906.0,2670211.0,94123.0
Address: 1546 McKinnon Avenue,1546 Mckinnon Ave,2.0,4.0,1175.0,01/15/2016,720000.0,37.735509,-122.388068,Bayview,5.0,SingleFamily,1940.0,735339.0,94124.0
Address: 478 Los Palmos Drive,478 Los Palmos Dr,1.0,3.0,1450.0,01/15/2016,1200000.0,37.734682,-122.452493,Westwood Highlands,6.0,SingleFamily,1947.0,1196619.0,94127.0
Address: 367 Vernon Street,367 Vernon St,3.0,4.0,2100.0,01/15/2016,1300000.0,37.719099,-122.468325,Merced Heights,7.0,SingleFamily,1937.0,1042186.0,94132.0
Address: 115 Colby Street,115 Colby St,3.0,3.0,1753.0,01/15/2016,950000.0,37.728726,-122.413656,Portola,7.0,SingleFamily,1970.0,953825.0,94134.0
Address: 138 Bronte Street,138 Bronte St,1.0,2.0,1077.0,01/14/2016,1045000.0,37.737634,-122.410499,Bernal Heights,6.0,SingleFamily,1950.0,1118463.0,94110.0
Address: 1819 26th Avenue,1819 26th Ave,1.0,2.0,1175.0,01/14/2016,1000000.0,37.75348,-122.484273,Central Sunset,5.0,SingleFamily,1939.0,1205558.0,94122.0
Address: 2421 Franklin Street,2421 Franklin St,4.0,4.0,2096.0,01/14/2016,2400000.0,37.79675,-122.425354,Pacific Heights,8.0,Condominium,1922.0,2765504.0,94123.0
Address: 2865 Vallejo Street,2865 Vallejo St,2.0,3.0,2230.0,01/14/2016,7450000.0,37.79376,-122.444385,Pacific Heights,9.0,SingleFamily,1925.0,8086133.0,94123.0
Address: 1455 Oakdale Avenue,1455 Oakdale Ave,3.0,5.0,1594.0,01/14/2016,935000.0,37.732869,-122.387815,Bayview,8.0,SingleFamily,1964.0,769558.0,94124.0
Address: 1920 Jones Street,1920 Jones St,2.0,3.0,1675.0,01/14/2016,1950000.0,37.799094,-122.41542,Russian Hill,6.0,Condominium,1906.0,2406148.0,94133.0
Address: 231 Clinton Park,231 Clinton Park,1.0,2.0,1440.0,01/13/2016,1380000.0,37.768869,-122.425243,Mission,5.0,Condominium,1922.0,1370100.0,94103.0
Address: 721 Delano Avenue,721 Delano Ave,1.0,1.0,1210.0,01/13/2016,700000.0,37.719729,-122.445083,Outer Mission,5.0,SingleFamily,1930.0,642354.0,94112.0
Address: 324 Chicago Way,324 Chicago Way,1.0,3.0,1465.0,01/13/2016,990000.0,37.709611,-122.433129,Crocker Amazon,7.0,SingleFamily,1924.0,911446.0,94112.0
Address: 2470 Broadway Street,2470 Broadway St,5.0,5.0,3851.0,01/13/2016,6500000.0,37.794209,-122.437789,Pacific Heights,13.0,SingleFamily,1910.0,7868171.0,94115.0
Address: 528 34th Avenue,528 34th Ave,6.0,8.0,4158.0,01/13/2016,2240000.0,37.779053,-122.494007,Outer Richmond,15.0,Duplex,1987.0,2357494.0,94121.0
Address: 2425 Lincoln Way,2425 Lincoln Way,1.0,2.0,1500.0,01/13/2016,1265000.0,37.764874,-122.484231,Central Sunset,6.0,SingleFamily,1923.0,1403499.0,94122.0
Address: 2828 Divisadero Street,2828 Divisadero St,5.5,5.0,5590.0,01/13/2016,8400000.0,37.795785,-122.441671,Cow Hollow,11.0,SingleFamily,1912.0,10255025.0,94123.0
Address: 2130 Quesada Avenue,2130 Quesada Ave,2.0,4.0,995.0,01/13/2016,680000.0,37.738125,-122.399345,Silver Terrace,5.0,SingleFamily,1944.0,676584.0,94124.0
Address: 59 Manor Drive,59 Manor Dr,1.5,3.0,1575.0,01/13/2016,1250000.0,37.727581,-122.464761,Mount Davidson Manor,7.0,SingleFamily,1930.0,1324789.0,94127.0
Address: 22 Liberty Street,22 Liberty St,1.0,3.0,1379.0,01/12/2016,1389000.0,37.75791,-122.421827,Mission,6.0,Condominium,1879.0,1410141.0,94110.0
Address: 601 Capitol Avenue,601 Capitol Ave,2.0,4.0,2008.0,01/12/2016,800000.0,37.715924,-122.459257,Oceanview,7.0,SingleFamily,1977.0,912149.0,94112.0
Address: 1621 McAllister Street,1621 Mcallister St,2.0,7.0,3974.0,01/12/2016,2400000.0,37.777505,-122.438785,North Panhandle,12.0,Duplex,1900.0,2909727.0,94115.0
Address: 554 46th Avenue,554 46th Ave,1.0,2.0,830.0,01/12/2016,665000.0,37.778042,-122.506661,Outer Richmond,5.0,SingleFamily,1900.0,842718.0,94121.0
Address: 12 Las Villas Court,12 Las Villas Ct,3.0,3.0,1480.0,01/12/2016,570000.0,37.733425,-122.385585,Bayview,7.0,SingleFamily,1995.0,715042.0,94124.0
Address: 620 29th Street,620 29th St,2.0,5.0,2105.56114459518,01/12/2016,1050000.0,37.743503,-122.433974,Noe Valley,9.0,SingleFamily,1913.0,1562425.0,94131.0
Address: 383 Missouri Street,383 Missouri St,1.0,2.0,1625.0,01/11/2016,1310000.0,37.761581,-122.396117,Potrero Hill,6.0,Condominium,1904.0,1536488.0,94107.0
Address: 1250 Clay Street #306,1250 Clay St APT 306,1.0,1.0,541.0,01/11/2016,695000.0,37.793575,-122.41367,Nob Hill,3.0,Condominium,1950.0,554249.0,94108.0
Address: 1177 California Street #1212,1177 California St APT 1212,1.0,1.0,1056.0,01/11/2016,1200000.0,37.791089,-122.413658,Downtown,3.0,Condominium,1978.0,1120826.0,94108.0
Address: 1200 Gough Street #16D,1200 Gough St APT 16D,1.0,1.0,900.0,01/11/2016,825000.0,37.78482,-122.423994,Van Ness - Civic Center,4.0,Condominium,1966.0,842526.0,94109.0
Address: 39 Bradford Street,39 Bradford St,1.0,2.0,775.0,01/11/2016,1250000.0,37.742618,-122.409173,Bernal Heights,4.236660409301692,SingleFamily,1947.0,990518.0,94110.0
Address: 111 Harold Avenue,111 Harold Ave,1.0,2.0,1087.0,01/11/2016,720000.0,37.720294,-122.453327,Ingleside,4.0,SingleFamily,1947.0,641720.0,94112.0
Address: 86 Restani Way,86 Restani Way,3.5,3.0,2781.0,01/11/2016,1054000.0,37.718283,-122.443689,Outer Mission,8.0,SingleFamily,1954.0,1096512.0,94112.0
Address: 355 1st Street #1702,355 1st St UNIT 1702,2.0,2.0,1166.0,01/08/2016,1570000.0,37.787029,-122.3936,South Beach,4.0,Condominium,2004.0,1576063.0,94105.0
Address: 88 King Street #103,88 King St APT 103,3.0,3.0,1466.0,01/08/2016,1370000.0,37.78063,-122.389635,South Beach,6.0,Condominium,2000.0,1527589.0,94107.0
Address: 81 Frank Norris Street #504,81 Frank Norris St UNIT 504,1.0,1.0,800.0,01/08/2016,718000.0,37.789081,-122.420051,Downtown,4.0,Condominium,2007.0,767342.0,94109.0
Address: 72 Crescent Avenue,72 Crescent Ave,3.0,4.0,3000.0,01/08/2016,1625000.0,37.734991,-122.42276,Bernal Heights,7.0,SingleFamily,1951.0,1616808.0,94110.0
Address: 1316 Guerrero Street,1316-1318 Guerrero St,5.0,6.0,4000.0,01/08/2016,1706000.0,37.749991,-122.423045,Mission,14.0,Duplex,1925.0,2101275.0,94110.0
Address: 3532 23rd Street,3532 23rd St,1.0,2.0,1375.0,01/08/2016,1900000.0,37.753856,-122.422349,Mission,10.0,SingleFamily,1900.0,1466310.0,94110.0
Address: 1406 Golden Gate Avenue,1406 Golden Gate Ave,3.0,3.0,1628.0,01/08/2016,1200000.0,37.779515,-122.433995,Western Addition,6.0,Condominium,1885.0,1567139.0,94115.0
Address: 1833 Laguna Street,1833 Laguna St,4.5,5.0,4400.0,01/08/2016,5500000.0,37.788072,-122.428971,Lower Pacific Heights,9.0,SingleFamily,1900.0,5243295.0,94115.0
Address: 1576 Waller Street,1576 Waller St,1.0,3.0,1668.0,01/08/2016,1495000.0,37.768882,-122.45008,Haight-Ashbury,8.0,Condominium,1900.0,1379568.0,94117.0
Address: 1558 45th Avenue,1558 45th Ave,2.0,2.0,1370.0,01/08/2016,930000.0,37.757512,-122.504319,Outer Sunset,8.0,SingleFamily,1957.0,1009450.0,94122.0
Address: 2165 Revere Avenue,2165 Revere Ave,1.5,3.0,1125.0,01/08/2016,1040000.0,37.737461,-122.400912,Silver Terrace,5.0,SingleFamily,1925.0,709660.0,94124.0
Address: 95 Red Rock Way #303M,95 Red Rock Way APT 303M,1.0,0.0,592.0,01/08/2016,530000.0,37.746324,-122.441517,Diamond Heights,2.0,Condominium,1972.0,522263.0,94131.0
Address: 270 Bright Street,270 Bright St,1.0,2.0,1010.0,01/08/2016,750000.0,37.715614,-122.463238,Ingleside Heights,4.0,SingleFamily,1928.0,682958.0,94132.0
Address: 1097 Howard Street #303,1097 Howard St UNIT 303,1.0,1.0,1056.0,01/07/2016,975000.0,37.777996,-122.408912,South of Market,2.0,Condominium,1998.0,1052006.0,94103.0
Address: 260 King Street #605,260 King St UNIT 605,2.0,2.0,1488.0,01/07/2016,1475000.0,37.777641,-122.393417,South of Market,4.0,Condominium,2004.0,1548707.0,94107.0
Address: 930 Ashbury Street,930 Ashbury St,4.0,4.0,2510.0,01/07/2016,2278000.0,37.765123,-122.445719,Parnassus - Ashbury,10.0,SingleFamily,1917.0,2793185.0,94117.0
Address: 133 Richardson Avenue,133 Richardson Ave,3.0,3.0,2323.0,01/07/2016,2080000.0,37.79989,-122.446839,Cow Hollow,6.0,SingleFamily,1939.0,4266420.0,94123.0
Address: 3315 Pierce Street,3315 Pierce St,3.5,3.0,2255.0,01/07/2016,2500000.0,37.80065,-122.439786,Marina,7.0,SingleFamily,1925.0,3437198.0,94123.0
Address: 601 Van Ness Avenue #201,601 Van Ness Ave APT 201,1.0,1.0,750.0,01/06/2016,555000.0,37.781386,-122.421406,Van Ness - Civic Center,3.0,Condominium,1982.0,604402.0,94102.0
Address: 260 King Street #1009,260 King St UNIT 1009,1.0,1.0,823.0,01/06/2016,750000.0,37.777191,-122.393394,South of Market,3.0,Condominium,2004.0,812706.0,94107.0
Address: 728 Alabama Street #105,728 Alabama St APT 105,1.0,1.0,642.0,01/06/2016,655000.0,37.760025,-122.412025,Mission,3.0,Condominium,1995.0,679113.0,94110.0
Address: 50 Roscoe Street,50-52 Roscoe St,2.0,4.0,2150.0,01/06/2016,1735000.0,37.734268,-122.419017,Bernal Heights,10.0,MultiFamily2To4,1963.0,1496302.0,94110.0
Address: 14 Stoneyford Avenue,14 Stoneyford Ave,1.0,3.0,1158.0,01/06/2016,650000.0,37.730923,-122.421186,Excelsior,6.0,SingleFamily,1942.0,799134.0,94112.0
Address: 324 Hanover Street,324 Hanover St,1.0,2.0,1325.0,01/06/2016,700000.0,37.70932,-122.443403,Crocker Amazon,5.0,SingleFamily,1927.0,669644.0,94112.0
Address: 1760 Ofarrell Street #18,1760 Ofarrell St APT 18,2.0,2.0,1061.0,01/06/2016,838000.0,37.783415,-122.43399,Western Addition,5.0,Condominium,1984.0,941125.0,94115.0
Address: 811 40th Avenue,811 40th Ave,1.0,2.0,1095.0,01/06/2016,880000.0,37.773411,-122.500678,Outer Richmond,5.0,SingleFamily,1914.0,921916.0,94121.0
Address: 938 Market Street,938-940 Market St,1.0,1.0,693.0,11/25/2009,310000.0,37.783908,-122.408889,Downtown,4.0,Condominium,2007.0,675023.0,94102.0
Address: 632 Mississippi Street,632 Mississippi St,1.0,2.0,1100.0,01/05/2016,1420000.0,37.758382,-122.394495,Potrero Hill,5.0,SingleFamily,1922.0,1125336.0,94107.0
Address: 7 Lee Avenue,7 Lee Ave,3.0,2.0,1370.0,01/05/2016,1100000.0,37.718407,-122.454339,Ingleside,4.0,SingleFamily,1924.0,796210.0,94112.0
Address: 2223 44th Avenue,2223 44th Ave,2.0,3.0,1747.0,01/05/2016,1325000.0,37.7451,-122.503034,Outer Parkside,9.0,SingleFamily,1939.0,1057428.0,94116.0
Address: 1626 32nd Avenue,1626 32nd Ave,3.0,4.0,2100.0,01/05/2016,1425000.0,37.756819,-122.490297,Central Sunset,9.0,SingleFamily,1935.0,1327770.0,94122.0
Address: 1387 14th Avenue,1387 14th Ave,2.0,4.0,1926.0,01/05/2016,1655000.0,37.762208,-122.471851,Inner Sunset,8.0,SingleFamily,1931.0,1356873.0,94122.0
Address: 1765 15th Avenue,1765 15th Ave,3.5,5.0,3114.0,01/05/2016,2250000.0,37.755478,-122.472504,Golden Gate Heights,8.0,SingleFamily,1981.0,2203281.0,94122.0
Address: 1243 Quesada Avenue,1243 Quesada Ave,1.0,2.0,1250.0,01/05/2016,610000.0,37.728318,-122.383131,Bayview,7.0,SingleFamily,1927.0,608199.0,94124.0
Address: 423 28th Street #201,423-425 28TH St #201,2.0,3.0,1875.0,01/05/2016,1589000.0,37.744745,-122.43187,Noe Valley,7.0,Condominium,1981.0,2119279.0,94131.0
Address: 8200 Oceanview Terrace #204,8200 Oceanview Ter APT 204,1.0,1.0,688.0,01/05/2016,510000.0,37.71048,-122.467645,Ingleside Heights,3.0,Condominium,2002.0,523731.0,94132.0
Address: 851 South Van Ness Avenue #104,851 Van Ness Ave APT 104,2.0,2.0,1227.0,01/04/2016,641000.0,37.78352,-122.421356,Van Ness - Civic Center,3.0,Condominium,2002.0,1118435.0,94109.0
Address: 54 Marston Avenue,54 Marston Ave,5.0,5.0,2500.0,01/04/2016,1650000.0,37.727716,-122.445802,Sunnyside,7.0,SingleFamily,1927.0,1634358.0,94112.0
Address: 2151 Laguna Street #2,2151 Laguna St # 2,2.0,3.0,2624.0,01/04/2016,4500000.0,37.791114,-122.429586,Pacific Heights,7.0,Condominium,1919.0,3220249.0,94115.0
Address: 28 Williams Avenue,28 Williams Ave,2.0,2.0,1250.0,01/04/2016,660000.0,37.729497,-122.393183,Bayview,5.0,SingleFamily,1930.0,593699.0,94124.0
Address: 304 Gold Mine Drive,304 Gold Mine Dr,3.0,5.0,2504.0,01/04/2016,1651000.0,37.740484,-122.438964,Diamond Heights,7.0,SingleFamily,1968.0,1844348.0,94131.0
Address: 180 7th Street #408,180 7th St # 408,1.0,1.0,470.0,12/31/2015,550000.0,37.778082,-122.410082,South of Market,3.0,Condominium,1992.0,540858.0,94103.0
Address: 961 San Bruno Avenue,961 San Bruno Ave,2.0,2.0,1297.0,12/31/2015,980000.0,37.757433,-122.404508,Mission,6.0,SingleFamily,1927.0,1100483.0,94110.0
Address: 591 27th Avenue,591 27th Ave,1.0,2.0,900.0,12/31/2015,897000.0,37.778299,-122.486969,Central Richmond,4.0,SingleFamily,1915.0,1006445.0,94121.0
Address: 520 El Camino Del Mar,520 El Camino Del Mar,5.5,6.0,4840.0,12/31/2015,6100000.0,37.787975,-122.488862,Sea Cliff,12.0,SingleFamily,1926.0,8166551.0,94121.0
Address: 19 Bridgeview Drive,19 Bridgeview Dr,2.0,3.0,1092.0,12/31/2015,640000.0,37.7342,-122.394079,Silver Terrace,5.0,SingleFamily,1944.0,811298.0,94124.0
Address: 446 Chenery Street,446 Chenery St,1.0,1.0,977.0,12/31/2015,1064000.0,37.736154,-122.429739,Glen Park,5.0,SingleFamily,1911.0,1517423.0,94131.0
Address: 114 Clearfield Drive,114 Clearfield Dr,2.0,3.0,1790.0,12/31/2015,1350000.0,37.731595,-122.491148,Lakeshore,7.0,SingleFamily,1951.0,1351895.0,94132.0
Address: 1070 Green Street #1402,1070 Green St APT 1402,2.5,3.0,2175.7785153508594,12/31/2015,2600000.0,37.798792,-122.416797,Russian Hill,6.0,Condominium,1963.0,3135441.0,94133.0
Address: 1 Crescent Way #1402,1 Crescent Way APT 1402,2.0,2.0,1063.0,12/31/2015,660000.0,37.71085,-122.390182,Bayview,5.0,Condominium,2001.0,611960.0,94134.0
Address: 181 Ofarrell Street #514,181 Ofarrell St STE 514,1.5,1.0,1080.0,12/30/2015,978000.0,37.78619,-122.40763,Downtown,5.0,MultiFamily2To4,2006.0,1012206.0,94102.0
Address: 355 1st Street #1503,355 1st St UNIT 1503,1.0,1.0,795.0,01/03/2016,1124500.0,37.787029,-122.3936,South Beach,3.0,Condominium,2004.0,1021145.0,94105.0
Address: 355 1st Street #1602,355 1st St UNIT 1602,2.0,2.0,1239.0,12/30/2015,1500000.0,37.787029,-122.393638,South Beach,4.0,MultiFamily2To4,2004.0,1650793.0,94105.0
Address: 2250 24th Street #319,2250 24th St APT 319,1.0,2.0,809.0,12/30/2015,675000.0,37.753905,-122.40202,Potrero Hill,4.0,Condominium,1989.0,715661.0,94107.0
Address: 638 19th Street #10,638 19th St UNIT 10,2.5,3.0,1467.0,12/30/2015,1525000.0,37.762084,-122.389007,Central Waterfront - Dogpatch,5.0,Condominium,2007.0,1472569.0,94107.0
Address: 270 Nevada Street,270 Nevada St,4.0,3.0,2371.0,12/30/2015,2075000.0,37.738665,-122.411652,Bernal Heights,6.0,SingleFamily,1900.0,1886914.0,94110.0
Address: 1988 Alemany Boulevard,1988 Alemany Blvd,1.0,3.0,1466.0,12/30/2015,860000.0,37.72044,-122.43969,Mission Terrace,7.0,SingleFamily,1939.0,841301.0,94112.0
Address: 445 Persia Avenue,445 Persia Ave,1.0,3.0,1435.0,12/30/2015,950000.0,37.721458,-122.432181,Excelsior,6.0,MultiFamily2To4,1955.0,856570.0,94112.0
Address: 1145 Cayuga Avenue,1145 Cayuga Ave,1.0,3.0,1590.0,12/30/2015,1050000.0,37.719885,-122.441105,Mission Terrace,6.0,SingleFamily,1941.0,957645.0,94112.0
Address: 95 Red Rock Way #202M,95 Red Rock Way APT 202M,1.0,1.0,830.0,12/30/2015,670000.0,37.746339,-122.44152,Diamond Heights,3.0,Condominium,1972.0,688917.0,94131.0
Address: 159 Glenview Drive,159 Glenview Dr,1.0,2.0,833.0,12/30/2015,760000.0,37.748824,-122.447752,Midtown Terrace,4.0,SingleFamily,1951.0,865762.0,94131.0
Address: 1915 Diamond Street,1915 Diamond St,3.0,4.0,2400.0,12/29/2015,1800000.0,37.742141,-122.435111,Glen Park,6.0,SingleFamily,1910.0,2087545.0,94131.0
Address: 201 Harrison Street #407,201 Harrison St APT 407,1.0,0.0,410.0,12/29/2015,525000.0,37.787585,-122.39048,South Beach,1.0,Condominium,1991.0,548618.0,94105.0
Address: 81 Lansing Street #410,81 Lansing St APT 410,1.0,1.0,855.0,12/29/2015,778000.0,37.785651,-122.39403,South Beach,4.0,Condominium,1995.0,947673.0,94105.0
Address: 1177 California Street #423,1177 California St APT 423,1.0,0.0,706.0,12/29/2015,738000.0,37.791089,-122.413658,Downtown,2.0,Condominium,1978.0,759982.0,94108.0
Address: 2311 Scott Street #1,2311 Scott St APT 1,2.0,3.0,1986.0,12/29/2015,2720000.0,37.79137,-122.439704,Pacific Heights,7.0,MultiFamily2To4,1965.0,2629569.0,94115.0
Address: 430 Mangels Avenue,430 Mangels Ave,1.0,2.0,1200.0,12/29/2015,1100000.0,37.733308,-122.447346,Sunnyside,5.0,SingleFamily,1931.0,1174154.0,94127.0
Address: 179 Flood Avenue,179 Flood Ave,4.0,4.0,1900.0,12/29/2015,1538000.0,37.729648,-122.4438,Sunnyside,8.0,SingleFamily,1924.0,1893489.0,94131.0
Address: 151 Everglade Drive,151 Everglade Dr,3.0,3.0,1858.0,12/29/2015,1400000.0,37.731504,-122.489116,Lakeshore,8.0,SingleFamily,1950.0,1432173.0,94132.0
Address: 1101 Pacific Avenue #302,1101 Pacific Ave APT 302,2.0,2.0,1009.0,12/29/2015,1000000.0,37.795912,-122.413603,Nob Hill,4.0,Condominium,2000.0,1076950.0,94133.0
Address: 1015 Goettingen Street,1015 Goettingen St,2.0,3.0,1900.0,12/29/2015,880000.0,37.719474,-122.403272,Visitacion Valley,8.0,SingleFamily,1954.0,980014.0,94134.0
Address: 400 Beale Street #2506,400 Beale St APT 2506,2.0,2.0,1215.0,12/28/2015,1198000.0,37.78691,-122.390925,South Beach,5.0,Condominium,2002.0,1253307.0,94105.0
Address: 178 Jules Avenue,178 Jules Ave,1.0,3.0,1350.0,12/24/2015,821500.0,37.721438,-122.460928,Ingleside,6.0,SingleFamily,1946.0,746564.0,94112.0
Address: 2801 Jackson Street #12,2801 Jackson St # 12,1.0,2.0,1330.0,12/24/2015,1418000.0,37.791415,-122.441445,Pacific Heights,5.0,Condominium,1906.0,1351924.0,94115.0
Address: 1442 Grove Street #A,1442 Grove St # A,1.0,1.0,593.0,12/24/2015,675000.0,37.775894,-122.440467,North Panhandle,4.0,Condominium,1890.0,701276.0,94117.0
Address: 1667 34th Avenue,1667 34th Ave,1.0,2.0,1350.0,12/24/2015,1050000.0,37.75601,-122.493047,Central Sunset,5.0,SingleFamily,1940.0,1090231.0,94122.0
Address: 382 Surrey Street,382 Surrey St,2.5,3.0,1625.0,12/24/2015,1900000.0,37.735936,-122.438508,Glen Park,6.0,SingleFamily,1966.0,1831470.0,94131.0
Address: 338 Spear Street #4C,338 Spear St UNIT 4C,1.0,1.0,799.0,12/23/2015,949000.0,37.789533,-122.390371,South Beach,4.0,Condominium,2009.0,967683.0,94105.0
Address: 219 Brannan Street #1B,219 Brannan St UNIT 1B,2.0,2.0,900.0,12/23/2015,1098000.0,37.782575,-122.390364,South Beach,4.0,Condominium,2000.0,1188253.0,94107.0
Address: 1562 22nd Street,1562 22nd St,2.0,3.0,2542.0,12/23/2015,1665000.0,37.757671,-122.396586,Potrero Hill,6.0,Condominium,2006.0,1821732.0,94107.0
Address: 1268 Lombard Street #2,1268 Lombard St # 2,2.0,3.0,1860.0,12/23/2015,3195000.0,37.801884,-122.422424,Russian Hill,5.0,Condominium,2013.0,3044789.0,94109.0
Address: 977 Guerrero Street,977 Guerrero St,1.0,2.0,1440.0,12/23/2015,2000000.0,37.755558,-122.422897,Mission,6.0,Condominium,1900.0,1616829.0,94110.0
Address: 2670 San Jose Avenue,2670 San Jose Ave,1.0,3.0,1001.0,12/23/2015,756000.0,37.714831,-122.451887,Oceanview,4.0,SingleFamily,1949.0,745570.0,94112.0
Address: 2 Northwood Drive,2 Northwood Dr,2.0,3.0,1960.0,12/23/2015,1800000.0,37.72982,-122.456873,Westwood Park,6.0,SingleFamily,1924.0,1747483.0,94112.0
Address: 83 Seward Street,83 Seward St,2.0,3.0,2650.0,12/23/2015,2100000.0,37.758694,-122.440807,Eureka Valley - Dolores Heights - Castro,8.0,SingleFamily,1929.0,2112221.0,94114.0
Address: 1059 Noe Street,1059 Noe St,2.5,3.0,2545.0,12/23/2015,2495000.0,37.752026,-122.431666,Noe Valley,8.0,SingleFamily,1912.0,2532954.0,94114.0
Address: 1310 Scott Street #40,1310 Scott St # 40,2.0,3.0,1270.0,12/23/2015,958000.0,37.78228,-122.43682,Western Addition,6.0,Condominium,1986.0,963058.0,94115.0
Address: 2287 43rd Avenue,2287 43rd Ave,2.0,3.0,1331.0,12/23/2015,968000.0,37.744054,-122.50182,Outer Parkside,5.0,SingleFamily,1941.0,1132979.0,94116.0
Address: 2195 28th Avenue,2195 28th Ave,3.0,4.0,2260.0,12/23/2015,1350000.0,37.746487,-122.48589,Parkside,9.0,SingleFamily,1939.0,1336525.0,94116.0
Address: 2920 Anza Street,2920 Anza St,2.0,4.0,2102.0,12/23/2015,310000.0,37.778636,-122.479699,Central Richmond,11.0,SingleFamily,1920.0,1998218.0,94121.0
Address: 78 22nd Avenue,78 22nd Ave,4.5,4.0,4017.0,12/23/2015,4300000.0,37.786394,-122.481641,Lake,11.0,SingleFamily,1907.0,4505020.0,94121.0
Address: 1727 29th Avenue,1727 29th Ave,3.5,4.0,2580.0,12/23/2015,1880000.0,37.755068,-122.487595,Central Sunset,8.0,SingleFamily,1939.0,1515578.0,94122.0
Address: 1459 Thomas Avenue,1459-1461 Thomas Ave,3.0,6.0,1950.0,12/23/2015,655000.0,37.728719,-122.388835,Bayview,9.0,MultiFamily2To4,1900.0,894702.0,94124.0
Address: 646 Los Palmos Drive,646 Los Palmos Dr,3.0,5.0,2956.0,12/23/2015,1360000.0,37.735214,-122.456586,Westwood Highlands,8.0,SingleFamily,1979.0,1763346.0,94127.0
Address: 1231 Bosworth Street,1231 Bosworth St,1.0,1.0,600.0,12/23/2015,899000.0,37.735495,-122.441225,Glen Park,4.0,SingleFamily,1910.0,1095960.0,94131.0
Address: 567 27th Street #3,567 27th St # 3,2.0,3.0,1600.0,12/23/2015,1400000.0,37.746306,-122.432752,Noe Valley,5.0,Condominium,1989.0,1529596.0,94131.0
Address: 74 Newburg Street,74 Newburg St,2.0,4.0,1625.0,12/23/2015,2250000.0,37.745818,-122.434713,Noe Valley,10.0,SingleFamily,1941.0,2158429.0,94131.0
Address: 1381 Sanchez Street,1381 Sanchez St,3.0,4.0,2000.0,12/23/2015,2600000.0,37.747076,-122.428941,Noe Valley,7.0,SingleFamily,1900.0,2436438.0,94131.0
Address: 425 1st Street #802,425 1st St UNIT 802,2.0,2.0,1309.0,12/22/2015,1340000.0,37.786041,-122.392654,South Beach,4.0,Townhouse,2008.0,1639298.0,94105.0
Address: 4647 25th Street,4647 25th St,2.5,3.0,2041.0,12/22/2015,1450000.0,37.749075,-122.441235,Noe Valley,7.0,Condominium,1978.0,1654110.0,94114.0
Address: 350 Eureka Street,350 Eureka St,2.0,4.0,1720.0,12/22/2015,2400000.0,37.756462,-122.438189,Eureka Valley - Dolores Heights - Castro,7.0,SingleFamily,1910.0,2401928.0,94114.0
Address: 3100 Washington Street #6,3100 Washington St #6,1.0,1.0,808.0,12/22/2015,825000.0,37.79053,-122.444565,Pacific Heights,3.0,Condominium,1964.0,824656.0,94115.0
Address: 1880 Steiner Street #101,1880 Steiner St APT 101,3.0,2.0,1332.0,12/22/2015,1350000.0,37.786575,-122.43472,Lower Pacific Heights,5.0,Condominium,1999.0,1352361.0,94115.0
Address: 3016 Sacramento Street,3016 Sacramento St,1.5,2.0,1408.0,12/22/2015,1853000.0,37.78897,-122.442995,Pacific Heights,5.0,Condominium,1890.0,1584134.0,94115.0
Address: 2007 46th Avenue,2007 46th Ave,2.0,3.0,1300.0,12/22/2015,905000.0,37.749009,-122.505371,Outer Parkside,6.0,SingleFamily,1940.0,829440.0,94116.0
Address: 2555 28th Avenue,2555 28th Ave,2.0,4.0,1360.0,12/22/2015,1010000.0,37.739715,-122.485461,Parkside,7.0,SingleFamily,1910.0,970987.0,94116.0
Address: 790 7th Avenue #104,790 7th Ave APT 104,1.0,2.0,560.0,12/22/2015,600000.0,37.773831,-122.464603,Inner Richmond,4.0,Condominium,1981.0,621722.0,94118.0
Address: 2845 Noriega Street,2845 Noriega St,2.5,3.0,2180.0,12/22/2015,1230000.0,37.75325,-122.494457,Central Sunset,6.0,SingleFamily,1947.0,1200446.0,94122.0
Address: 3835 Scott Street #105,3835 Scott St APT 105,1.0,1.0,1118.0,12/22/2015,1125000.0,37.805235,-122.442515,Marina,4.0,Condominium,1928.0,1180313.0,94123.0
Address: 6 Longview Court,6 Longview Ct,1.0,2.0,939.0,12/22/2015,955000.0,37.748307,-122.449855,Midtown Terrace,4.0,SingleFamily,1958.0,947144.0,94131.0
Address: 232 Bemis Street,232 Bemis St,1.0,2.0,1000.0,12/22/2015,1085000.0,37.736524,-122.431895,Glen Park,5.0,SingleFamily,1904.0,1093773.0,94131.0
Address: 87 Clearfield Drive,87 Clearfield Dr,2.0,3.0,1386.0,12/22/2015,1360000.0,37.732345,-122.491719,Lakeshore,6.0,SingleFamily,1951.0,1271520.0,94132.0
Address: 23 Rodgers Street,23 Rodgers St,1.0,1.0,538.0,12/21/2015,625000.0,37.775309,-122.409205,South of Market,3.0,Condominium,1908.0,651735.0,94103.0
Address: 38 Bryant Street #606,38 Bryant St APT 606,1.0,1.0,582.0,12/21/2015,650000.0,37.787466,-122.38898,South Beach,2.0,Condominium,1994.0,703119.0,94105.0
Address: 66 Cleary Court #1408,66 Cleary Ct APT 1408,2.0,2.0,1106.0,12/21/2015,895000.0,37.784298,-122.427058,Western Addition,5.0,Condominium,1963.0,962891.0,94109.0
Address: 130 Vienna Street,130 Vienna St,3.0,4.0,1853.0,12/21/2015,950000.0,37.726299,-122.426347,Excelsior,6.0,SingleFamily,1907.0,943708.0,94112.0
Address: 1858 47th Avenue,1858 47th Ave,2.0,3.0,1135.0,12/21/2015,895000.0,37.751825,-122.506072,Outer Sunset,5.0,SingleFamily,1958.0,946088.0,94122.0
Address: 59 Rico Way,59 Rico Way,1.5,3.0,1675.0,12/21/2015,2550000.0,37.804909,-122.43965,Marina,6.0,SingleFamily,1925.0,3215227.0,94123.0
Address: 3001 Castro Street,3001 Castro St,3.0,4.0,2316.3450279996905,12/21/2015,1695000.0,37.735783,-122.432356,Glen Park,8.0,SingleFamily,1927.0,2232641.0,94131.0
Address: 601 Van Ness Avenue #78,601 Van Ness Ave APT 78,2.0,2.0,952.0,12/18/2015,810000.0,37.781386,-122.421406,Van Ness - Civic Center,5.0,Condominium,1982.0,831870.0,94102.0
Address: 270 Valencia Street #503,270 Valencia St APT 503,1.0,2.0,747.0,12/18/2015,890000.0,37.76852,-122.422592,Mission,3.0,Condominium,2005.0,888398.0,94103.0
Address: 1177 California Street #702,1177 California St APT 702,1.0,1.0,511.0,12/18/2015,665000.0,37.791089,-122.413658,Downtown,2.0,Condominium,1978.0,590121.0,94108.0
Address: 1438 Green Street #5A,1438 Green St UNIT 5A,2.0,2.0,1206.0,12/18/2015,1278000.0,37.798116,-122.42288,Russian Hill,4.0,Condominium,1998.0,1367065.0,94109.0
Address: 1080 Sutter Street #1001,1080 Sutter St APT 1001,2.0,3.0,1273.0,12/18/2015,1450000.0,37.788066,-122.418065,Downtown,4.0,Condominium,2014.0,1438990.0,94109.0
Address: 249 Mullen Avenue,249 Mullen Ave,2.0,2.0,1275.0,12/18/2015,1025000.0,37.746969,-122.407362,Bernal Heights,5.0,SingleFamily,1907.0,1156792.0,94110.0
Address: 1049 Dolores Street #4,1049 Dolores St APT 4,1.0,2.0,904.0,12/18/2015,1266000.0,37.752658,-122.424819,Mission,3.0,Condominium,1960.0,1170155.0,94110.0
Address: 221 Flood Avenue,221 Flood Ave,6.0,9.0,5000.0,12/18/2015,1405000.0,37.729648,-122.444867,Sunnyside,7.0,SingleFamily,1900.0,1965458.0,94112.0
Address: 533 Elizabeth Street,533 Elizabeth St,3.0,4.0,1744.0,12/18/2015,1880000.0,37.751929,-122.432815,Noe Valley,7.0,SingleFamily,1955.0,2541253.0,94114.0
Address: 419 Hill Street,419 Hill St,2.0,3.0,2000.0,12/18/2015,2500000.0,37.755283,-122.430545,Eureka Valley - Dolores Heights - Castro,7.0,SingleFamily,1908.0,3077875.0,94114.0
Address: 2559 44th Avenue,2559 44th Ave,1.0,2.0,1214.0,12/18/2015,625000.0,37.738891,-122.502597,Outer Parkside,5.0,SingleFamily,1945.0,615604.0,94116.0
Address: 2178 22nd Avenue,2178 22nd Ave,3.0,3.0,1518.0,12/18/2015,1438000.0,37.747074,-122.478867,Parkside,6.0,SingleFamily,1928.0,1166743.0,94116.0
Address: 801 42nd Avenue,801 42nd Ave,3.0,3.0,2730.0,12/18/2015,1460000.0,37.773449,-122.502803,Outer Richmond,8.0,SingleFamily,1923.0,1445232.0,94121.0
Address: 1700 14th Avenue,1700 14th Ave,3.0,3.0,1756.0,12/18/2015,760000.0,37.756259,-122.470752,Golden Gate Heights,7.0,SingleFamily,1978.0,1546338.0,94122.0
Address: 1343 31st Avenue,1343 31st Ave,2.0,3.0,1886.0,12/18/2015,1250000.0,37.762152,-122.490254,Central Sunset,6.0,SingleFamily,1934.0,1326940.0,94122.0
Address: 2601 Lawton Street,2601 Lawton St,1.0,3.0,1450.0,12/18/2015,1250000.0,37.757201,-122.490916,Central Sunset,6.0,SingleFamily,1942.0,1143183.0,94122.0
Address: 1440 La Playa Street,1440 La Playa St,2.0,3.0,1313.0,12/18/2015,1303500.0,37.759503,-122.508756,Outer Sunset,6.0,SingleFamily,1900.0,1619617.0,94122.0
Address: 2953 Broderick Street,2953 Broderick St,2.5,2.0,1876.0,12/18/2015,3000000.0,37.797633,-122.444344,Cow Hollow,6.0,SingleFamily,1923.0,3179756.0,94123.0
Address: 27 Gaviota Way,27 Gaviota Way,3.0,3.0,2155.0,12/18/2015,1750000.0,37.739232,-122.44758,Miraloma Park,5.0,SingleFamily,1942.0,1476349.0,94127.0
Address: 5 Red Rock Way #75,5 Red Rock Way # 75,2.0,3.0,1310.0,12/18/2015,900000.0,37.74598,-122.442612,Diamond Heights,6.0,Condominium,1964.0,926830.0,94131.0
Address: 227 Delta Street,227 Delta St,1.0,3.0,825.0,12/18/2015,642000.0,37.71541,-122.408311,Visitacion Valley,4.0,SingleFamily,1958.0,621768.0,94134.0
Address: 156 Mary Teresa Street,156 Mary Teresa St,2.0,2.0,1207.0,12/18/2015,800000.0,37.713792,-122.398735,Little Hollywood,4.0,Condominium,2008.0,776466.0,94134.0
Address: 131 Brussels Street,131 Brussels St,3.0,4.0,2269.0,12/18/2015,1255000.0,37.730359,-122.406597,Portola,6.0,SingleFamily,1916.0,1193728.0,94134.0
Address: 557 Birch Street,557 Birch St,3.0,3.0,1635.0,12/17/2015,1575000.0,37.777827,-122.42579,Hayes Valley,10.0,SingleFamily,2001.0,1668248.0,94102.0
Address: 643 Natoma Street,643A Natoma St # A,1.0,2.0,887.0,07/16/2014,725000.0,37.777526,-122.410789,South of Market,5.0,Condominium,1910.0,851282.0,94103.0
Address: 281 Clinton Park,281 Clinton Park,1.0,3.0,1532.0,12/17/2015,1300000.0,37.768856,-122.426261,Mission,6.0,Condominium,1916.0,1480952.0,94103.0
Address: 765 Market Street #31H,765 Market St APT 31H,3.0,2.0,1434.0,12/17/2015,2800000.0,37.78622,-122.40431,Yerba Buena,5.0,Condominium,2001.0,2641509.0,94103.0
Address: 188 Minna Street #28B,188 Minna St APT 28B,2.5,2.0,1740.0,12/17/2015,2850000.0,37.786289,-122.401374,Yerba Buena,5.0,Condominium,2005.0,3175738.0,94105.0
Address: 540 Texas Street,540 Texas St,4.0,2.0,1700.0,12/17/2015,2162500.0,37.759462,-122.39557,Potrero Hill,5.0,SingleFamily,1926.0,1870505.0,94107.0
Address: 437 London Street,437 London St,1.0,2.0,900.0,12/17/2015,760000.0,37.722014,-122.435432,Excelsior,6.0,SingleFamily,1925.0,691756.0,94112.0
Address: 528 Miramar Avenue,528 Miramar Ave,1.0,2.0,1328.0,12/17/2015,918000.0,37.726323,-122.457891,Westwood Park,5.5071635147171065,SingleFamily,1919.0,999148.0,94112.0
Address: 1326 Lyon Street,1326 Lyon St,1.5,2.0,1300.0,12/17/2015,945000.0,37.783218,-122.444229,Lower Pacific Heights,5.0,Condominium,1906.0,967626.0,94115.0
Address: 1480 Golden Gate Avenue,1480 Golden Gate Ave,2.5,4.0,2292.2564834537625,12/17/2015,1809000.0,37.779426,-122.434875,Western Addition,8.0,Condominium,1900.0,1853668.0,94115.0
Address: 2076 14th Avenue,2076 14th Ave,1.0,2.0,1374.0,12/17/2015,1280000.0,37.749428,-122.470497,Golden Gate Heights,6.0,SingleFamily,1941.0,1013309.0,94116.0
Address: 539 44th Avenue,539 44th Ave,1.0,2.0,1290.0,12/17/2015,998500.0,37.778322,-122.505364,Outer Richmond,6.0,SingleFamily,1922.0,1028598.0,94121.0
Address: 1555 21st Avenue,1555 21st Ave,2.0,2.0,1204.0,12/17/2015,1100000.0,37.758688,-122.479261,Central Sunset,5.0,SingleFamily,1926.0,1078248.0,94122.0
Address: 1383 29th Avenue,1383 29th Ave,2.0,4.0,1475.0,12/17/2015,1175000.0,37.761563,-122.488023,Central Sunset,7.0,SingleFamily,1941.0,1143222.0,94122.0
Address: 1783 Newcomb Avenue,1783 Newcomb Ave,1.0,2.0,1385.0,12/17/2015,680000.0,37.736956,-122.393362,Bayview,6.0,SingleFamily,1925.0,579868.0,94124.0
Address: 1401 Shafter Avenue,1401 Shafter Ave,2.0,2.0,1412.0,12/17/2015,755000.0,37.728789,-122.387291,Bayview,5.0,SingleFamily,1929.0,756205.0,94124.0
Address: 142 Russ Street #5,142 Russ St STE 5,2.0,2.0,2198.0,12/20/2015,1475000.0,37.778152,-122.407806,South of Market,4.0,Condominium,1999.0,1603543.0,94103.0
Address: 6 Mint Plaza #702A,6 Mint Plz APT 702A,3.0,3.0,1670.0,12/16/2015,2550000.0,37.78308,-122.407541,South of Market,6.0,Condominium,1900.0,2268558.0,94103.0
Address: 2080 3rd Street #8,2080 3rd St APT 8,2.0,1.0,998.0,12/17/2015,875000.0,37.763302,-122.3891,Central Waterfront - Dogpatch,3.0,Condominium,1998.0,986153.0,94107.0
Address: 555 4th Street #513,555 4th St UNIT 513,2.0,2.0,1177.0,12/16/2015,1180000.0,37.779422,-122.396712,South of Market,5.0,Condominium,2006.0,1225684.0,94107.0
Address: 650 Delancey Street #203,650 Delancey St APT 203,2.0,2.0,1619.0,12/16/2015,2175000.0,37.782775,-122.389686,South Beach,3.0,Condominium,1996.0,2033936.0,94107.0
Address: 1945 Washington Street #411,1945 Washington St APT 411,1.0,1.0,653.0,12/16/2015,665000.0,37.792472,-122.425281,Pacific Heights,3.0,Condominium,1987.0,723213.0,94109.0
Address: 1143 Naples Street,1143 Naples St,3.0,5.0,3034.0,12/16/2015,950000.0,37.712673,-122.436874,Crocker Amazon,9.0,SingleFamily,1920.0,1235649.0,94112.0
Address: 130 Shakespeare Street,130 Shakespeare St,14.0,7.0,1308.0,12/23/2015,1000000.0,37.708635,-122.462835,Outer Mission,7.0,SingleFamily,2015.0,804491.0,94112.0
Address: 559 21st Avenue,559 21st Ave,1.0,2.0,1400.0,12/16/2015,1250000.0,37.77724,-122.480556,Central Richmond,5.0,SingleFamily,1918.0,1178840.0,94121.0
Address: 1706 12th Avenue,1706 12th Ave,2.0,4.0,1861.0,12/16/2015,1500000.0,37.75624,-122.468725,Inner Sunset,8.0,SingleFamily,1938.0,1439647.0,94122.0
Address: 71 Los Palmos Drive,71 Los Palmos Dr,1.5,3.0,1278.0,12/16/2015,1080000.0,37.734774,-122.447415,Miraloma Park,6.0,SingleFamily,1955.0,974552.0,94127.0
Address: 344 Moncada Way,344 Moncada Way,1.0,2.0,1778.0,12/16/2015,1415000.0,37.729763,-122.469902,Ingleside Terrace,6.0,SingleFamily,1925.0,1191747.0,94127.0
Address: 15 Santa Clara Avenue,15 Santa Clara Ave,2.0,5.0,2515.0,12/16/2015,2000000.0,37.739074,-122.465767,St. Francis Wood,7.0,SingleFamily,1921.0,2167947.0,94127.0
Address: 2576 Diamond Street,2576 Diamond St,2.0,2.0,878.0,12/16/2015,1265000.0,37.737683,-122.43496,Glen Park,5.0,SingleFamily,1906.0,1368609.0,94131.0
Address: 163 Monterey Boulevard,163 Monterey Blvd,2.0,3.0,1476.0,12/16/2015,1281000.0,37.731291,-122.438902,Sunnyside,5.0,SingleFamily,1939.0,1207825.0,94131.0
Address: 455 Vallejo Street #111,455 Vallejo St APT 111,1.0,1.0,825.0,12/16/2015,875000.0,37.798796,-122.404766,Telegraph Hill,3.0,Condominium,1973.0,877891.0,94133.0
Address: 333 1st Street #2103,333 1st St PH 2103,1.0,1.0,713.0,12/15/2015,1029000.0,37.787029,-122.393638,South Beach,3.0,Condominium,2004.0,941770.0,94105.0
Address: 260 King Street #421,260 King St UNIT 421,1.0,1.0,695.0,12/15/2015,731000.0,37.777641,-122.393417,South of Market,3.0,Condominium,2004.0,740291.0,94107.0
Address: 1177 California Street #501,1177 California St APT 501,1.0,1.0,884.0,12/15/2015,900000.0,37.791089,-122.413658,Downtown,3.0,Condominium,1978.0,953442.0,94108.0
Address: 1896 Pacific Avenue #802,1896 Pacific Ave APT 802,2.5,2.0,2272.0,12/17/2014,2735000.0,37.794706,-122.426347,Pacific Heights,6.0,Condominium,1924.0,2400315.0,94109.0
Address: 1250 Jones Street #802,1250 Jones St APT 802,1.0,1.0,1115.0,12/15/2015,1680000.0,37.793071,-122.414049,Nob Hill,5.0,Condominium,1929.0,1513279.0,94109.0
Address: 1807 Jones Street,1807 Jones St,2.0,2.0,1467.0,12/15/2015,1700000.0,37.79792,-122.415745,Russian Hill,5.0,Condominium,1922.0,1670920.0,94109.0
Address: 1248 Utah Street,1248 Utah St,4.0,4.0,2770.0,12/15/2015,2500000.0,37.753647,-122.405683,Mission,8.0,SingleFamily,1915.0,2323469.0,94110.0
Address: 2294 42nd Avenue,2294 42nd Ave,2.0,3.0,1650.0,12/15/2015,1060000.0,37.743988,-122.500211,Outer Parkside,7.0,SingleFamily,1946.0,1126530.0,94116.0
Address: 2771 38th Avenue,2771 38th Ave,2.0,3.0,1655.0,12/15/2015,1175000.0,37.735233,-122.495898,Outer Parkside,7.0,SingleFamily,1948.0,1156510.0,94116.0
Address: 544 Waller Street #1,544 Waller St # 1,3.0,3.0,1312.0,12/15/2015,1900000.0,37.771145,-122.43275,Hayes Valley,5.0,Condominium,1983.0,967555.0,94117.0
Address: 699 36th Avenue #408,699 36th Ave APT 408,3.0,3.0,1639.0,12/15/2015,925000.0,37.775999,-122.49655,Outer Richmond,7.0,SingleFamily,1997.0,982950.0,94121.0
Address: 16 Miraloma Drive,16 Miraloma Dr,4.0,6.0,3378.8723392212705,12/15/2015,2700000.0,37.739831,-122.460533,St. Francis Wood,11.0,SingleFamily,1928.0,4745269.0,94127.0
Address: 155 Arbor Street,155 Arbor St,1.0,3.0,1550.0,12/15/2015,1080000.0,37.736967,-122.437193,Glen Park,6.0,SingleFamily,1937.0,1174789.0,94131.0
Address: 2212 Castro Street,2212 Castro St,4.0,4.0,4017.0,12/15/2015,3595000.0,37.743817,-122.433688,Noe Valley,10.0,SingleFamily,2007.0,3622440.0,94131.0
Address: 1821 Grant Avenue #101,1821 Grant Ave APT 101,1.0,1.0,1048.0,12/15/2015,835000.0,37.803748,-122.408531,Telegraph Hill,2.0,Condominium,1975.0,900868.0,94133.0
Address: 1132 Goettingen Street,1132 Goettingen St,2.5,4.0,1586.0,12/15/2015,850000.0,37.717968,-122.403125,Visitacion Valley,6.0,SingleFamily,1947.0,761085.0,94134.0
Address: 130 Langton Street #A,130A Langton St # A,1.5,2.0,1000.0,12/14/2015,750000.0,37.77576,-122.40796,South of Market,3.0,Condominium,1906.0,801338.0,94103.0
Address: 760 Treat Avenue #1,760 Treat Ave # 1,2.0,3.0,1275.0,12/14/2015,1530000.0,37.75797,-122.413821,Mission,5.0,Condominium,1900.0,1411622.0,94110.0
Address: 720 Clipper Street,720-722 Clipper St,4.0,5.0,3202.0,12/14/2015,1500000.0,37.748866,-122.440925,Noe Valley,11.0,MultiFamily2To4,1976.0,2014246.0,94114.0
Address: 2820 Jackson Street,2820 Jackson St,3.5,5.0,3212.0,12/14/2015,4000000.0,37.791799,-122.44168,Pacific Heights,12.0,SingleFamily,1900.0,5095625.0,94115.0
Address: 1327 Cabrillo Street,1327 Cabrillo St,1.0,3.0,1755.0,12/14/2015,1285000.0,37.774707,-122.472938,Central Richmond,6.0,SingleFamily,1922.0,1352305.0,94118.0
Address: 783 La Playa Street #2,783 La Playa St # 2,1.0,1.0,667.0,12/14/2015,535000.0,37.77369,-122.51034,Outer Richmond,3.0,Condominium,1991.0,564369.0,94121.0
Address: 1526 45th Avenue,1526 45th Ave,2.0,2.0,1400.0,12/14/2015,925000.0,37.75806,-122.504358,Outer Sunset,8.0,SingleFamily,1916.0,1025103.0,94122.0
Address: 469 Clementina Street #12,469 Clementina St APT 12,1.0,1.0,600.0,12/11/2015,650000.0,37.779336,-122.405351,South of Market,3.0,Condominium,1993.0,634498.0,94103.0
Address: 9 Lafayette Street #3,9 Lafayette St # 3,2.0,2.0,1215.0,12/11/2015,975000.0,37.773411,-122.417548,South of Market,4.0,Condominium,2003.0,1020988.0,94103.0
Address: 355 1st Street #S909,355 1st St UNIT S909,2.0,2.0,995.0,12/11/2015,1249000.0,37.787031,-122.393642,South Beach,4.128615192525714,Condominium,2004.0,1256822.0,94105.0
Address: 1324 20th Street,1324 20th St,1.0,2.0,1000.0,12/11/2015,1317500.0,37.760291,-122.394893,Potrero Hill,5.0,SingleFamily,1925.0,1392668.0,94107.0
Address: 1521 Sutter Street #304,1521 Sutter St APT 304,2.0,2.0,1098.0,12/11/2015,1095000.0,37.786731,-122.425918,Lower Pacific Heights,4.0,Condominium,2008.0,1201009.0,94109.0
Address: 2828 Polk Street,2828 Polk St,2.0,2.0,1325.0,12/11/2015,1650000.0,37.802829,-122.423092,Russian Hill,5.0,Condominium,1941.0,1702947.0,94109.0
Address: 55 Alvarado Street,55 Alvarado St,1.0,2.0,994.0,12/11/2015,1220000.0,37.754366,-122.422347,Mission,4.0,Condominium,1906.0,1164724.0,94110.0
Address: 1088 Huron Avenue #1,1088 Huron Ave # 1,1.0,1.0,596.0,12/11/2015,486000.0,37.708438,-122.45457,Outer Mission,4.0,Condominium,1999.0,473967.0,94112.0
Address: 4021 Mission Street,4021 Mission St,1.0,2.0,1416.0,12/11/2015,1052000.0,37.733106,-122.426556,Bernal Heights,6.0,SingleFamily,1941.0,1127833.0,94112.0
Address: 154 Westwood Drive,154 Westwood Dr,2.0,3.0,1200.0,12/11/2015,1108000.0,37.728721,-122.458881,Westwood Park,5.0,SingleFamily,1925.0,1094903.0,94112.0
Address: 38 Levant Street,38 Levant St,1.5,2.0,1090.0,12/11/2015,1593000.0,37.764521,-122.442597,Corona Heights,5.0,SingleFamily,1938.0,1426596.0,94114.0
Address: 2215 California Street,2215 California St,6.0,5.0,3485.0,12/11/2015,5050000.0,37.788944,-122.431099,Lower Pacific Heights,7.0,SingleFamily,1900.0,5073152.0,94115.0
Address: 2343 30th Avenue,2343 30th Ave,1.0,2.0,1340.0,12/11/2015,981500.0,37.743553,-122.487877,Parkside,5.0,SingleFamily,1938.0,990302.0,94116.0
Address: 349 Frederick Street,349 Frederick St,2.5,3.0,2084.0,12/11/2015,1525000.0,37.766586,-122.449058,Haight-Ashbury,6.0,Condominium,1900.0,1727050.0,94117.0
Address: 1554 Masonic Avenue,1554 Masonic Ave,2.0,3.0,1540.0,12/11/2015,1860000.0,37.765936,-122.443759,Buena Vista Park,6.0,SingleFamily,1910.0,2081463.0,94117.0
Address: 3316 California Street #3,3316 California St APT 3,3.0,4.0,1779.0,12/11/2015,1865000.0,37.78726,-122.44917,Presidio Heights,11.0,Condominium,2000.0,1981091.0,94118.0
Address: 199 Chestnut Street #5,199 Chestnut St APT 5,1.0,1.0,1060.0,12/11/2015,1499000.0,37.804392,-122.40659,Telegraph Hill,4.0,Condominium,1930.0,1368028.0,94133.0
Address: 601 Van Ness Avenue #944,601 Van Ness Ave APT 944,1.0,1.0,894.0,12/10/2015,600000.0,37.781386,-122.421406,Van Ness - Civic Center,3.0,Condominium,1982.0,700229.0,94102.0
Address: 175 Russ Street #14,175 Russ St APT 14,2.5,2.0,1361.0,12/10/2015,1185000.0,37.778156,-122.40699,South of Market,5.0,Condominium,2003.0,1232573.0,94103.0
Address: 1452 Bush Street #1,1452 Bush St UNIT 1,2.5,2.0,1176.0,12/10/2015,1080000.0,37.788838,-122.421268,Van Ness - Civic Center,4.0,Condominium,2004.0,1268755.0,94109.0
Address: 400 Alemany Boulevard #15,400 Alemany Blvd APT 15,2.0,2.0,1048.0,12/11/2015,700000.0,37.733174,-122.414551,Bernal Heights,5.0,Condominium,2003.0,662645.0,94110.0
Address: 450 Prentiss Street,450 Prentiss St,1.0,2.0,1070.0,12/10/2015,999000.0,37.737609,-122.412376,Bernal Heights,5.0,SingleFamily,1926.0,1013730.0,94110.0
Address: 648 South Van Ness Avenue,648-652 S Van Ness Ave,1.0,2.0,4275.0,12/10/2015,1490000.0,37.762704,-122.417605,Mission,16.0,MultiFamily2To4,1911.0,2151982.0,94110.0
Address: 430 Fair Oaks Street,430 Fair Oaks St,3.0,4.0,2678.0,12/10/2015,2290000.0,37.749725,-122.424094,Mission,8.0,Condominium,1911.0,2133260.0,94110.0
Address: 29 Dorland Street,29 Dorland St,3.5,4.0,3455.0,12/10/2015,4800000.0,37.762093,-122.424584,Mission,7.0,SingleFamily,1907.0,4466889.0,94110.0
Address: 33 Santa Cruz Avenue #3,33 Santa Cruz Ave # 3,3.0,3.0,1738.0,12/10/2015,830000.0,37.709136,-122.465327,Outer Mission,6.0,SingleFamily,1976.0,860185.0,94112.0
Address: 3092 Market Street,3092 Market St,3.0,3.0,2115.0,12/10/2015,1880000.0,37.761083,-122.443454,Corona Heights,6.0,SingleFamily,2003.0,1889242.0,94114.0
Address: 2864 Sacramento Street,2864 Sacramento St,2.0,3.0,1768.0,12/10/2015,1510000.0,37.789343,-122.440047,Pacific Heights,8.0,SingleFamily,1900.0,1781853.0,94115.0
Address: 470 12th Avenue,470 12th Ave,1.5,2.0,1630.0,12/10/2015,1475000.0,37.779375,-122.470285,Inner Richmond,6.0,Condominium,1931.0,1413918.0,94118.0
Address: 3945 Clement Street,3945 Clement St,2.5,3.0,2209.0,12/10/2015,1699000.0,37.781101,-122.501742,Outer Richmond,6.0,SingleFamily,1930.0,1718287.0,94121.0
Address: 124 Noriega Street,124 Noriega St,2.0,3.0,1484.0,12/10/2015,1265000.0,37.754991,-122.465119,Inner Sunset,7.0,SingleFamily,1941.0,1183458.0,94122.0
Address: 495 Los Palmos Drive,495 Los Palmos Dr,1.0,3.0,1300.0,12/10/2015,1098000.0,37.73429,-122.452633,Westwood Highlands,7.0,SingleFamily,1947.0,1161145.0,94127.0
Address: 283 Bemis Street,283 Bemis St,3.0,4.0,2434.2791698540095,12/10/2015,2150000.0,37.735807,-122.43219,Glen Park,9.0,SingleFamily,1938.0,2048674.0,94131.0
Address: 530 Chestnut Street #407,530 Chestnut St APT 407,2.0,2.0,1208.0,12/10/2015,1180000.0,37.804334,-122.41245,North Beach,5.0,Condominium,2001.0,1327802.0,94133.0
Address: 999 Green Street #905,999 Green St APT 905,1.0,1.0,986.0,12/10/2015,1275500.0,37.798451,-122.415218,Russian Hill,4.0,Condominium,1964.0,1214258.0,94133.0
Address: 75 Folsom Street #801,75 Folsom St APT 801,2.0,2.0,1287.0,12/09/2015,1548000.0,37.7898,-122.389765,South Beach,6.0,Condominium,1991.0,1625414.0,94105.0
Address: 184 London Street,184 London St,1.0,3.0,750.0,12/09/2015,520000.0,37.726328,-122.432852,Excelsior,5.0,SingleFamily,1910.0,644808.0,94112.0
Address: 16 Orizaba Avenue,16 Orizaba Ave,6.0,6.0,4136.0,12/09/2015,1300000.0,37.709894,-122.46228,Outer Mission,15.0,SingleFamily,2010.0,1477736.0,94112.0
Address: 333 Presidio Avenue #4,333 Presidio Ave APT 4,1.0,1.0,770.0,12/09/2015,738000.0,37.788551,-122.447336,Presidio Heights,4.0,Condominium,1907.0,1027636.0,94115.0
Address: 2754 39th Avenue,2754 39th Ave,2.0,3.0,1350.0,12/09/2015,985000.0,37.73549,-122.496329,Outer Parkside,4.0,SingleFamily,1948.0,1025185.0,94116.0
Address: 815 Laguna Honda Boulevard,815 Laguna Honda Blvd,1.5,2.0,1791.0,12/09/2015,1250000.0,37.743955,-122.456084,Forest Hill Extension,7.0,SingleFamily,1935.0,1407363.0,94127.0
Address: 135 Red Rock Way #311L,135 Red Rock Way APT 311L,1.0,1.0,830.0,12/09/2015,605000.0,37.746221,-122.441966,Diamond Heights,3.0,Condominium,1972.0,639463.0,94131.0
Address: 174 Victoria Street,174 Victoria St,1.0,3.0,984.0,12/09/2015,720000.0,37.713859,-122.465018,Ingleside Heights,5.0,SingleFamily,1940.0,775368.0,94132.0
Address: 310 Townsend Street #311,310 Townsend St APT 311,1.0,1.0,853.0,12/08/2015,900000.0,37.777027,-122.395736,South of Market,4.0,Condominium,2006.0,903389.0,94107.0
Address: 51 Mirabel Avenue,51 Mirabel Ave,1.0,2.0,875.0,12/08/2015,1325000.0,37.746731,-122.416518,Bernal Heights,4.0,SingleFamily,1900.0,977699.0,94110.0
Address: 134 Naples Street,134 Naples St,1.0,2.0,1125.0,12/08/2015,647500.0,37.726623,-122.427192,Excelsior,5.0,SingleFamily,1925.0,765440.0,94112.0
Address: 4475 24th Street #2,4475 24th St APT 2,1.0,2.0,837.0,12/08/2015,839500.0,37.750616,-122.442268,Noe Valley,4.0,Condominium,1976.0,894087.0,94114.0
Address: 6542 Fulton Street,6542 Fulton St,1.0,2.0,994.0,12/08/2015,800000.0,37.771905,-122.502038,Outer Richmond,5.0,Condominium,1937.0,833558.0,94121.0
Address: 3535 Clement Street,3535 Clement St,3.0,4.0,2500.0,12/08/2015,1830000.0,37.781184,-122.497425,Outer Richmond,8.0,SingleFamily,1919.0,2880304.0,94121.0
Address: 2660 Scott Street,2660 Scott St,8.0,7.0,9190.0,12/08/2015,13075000.0,37.794473,-122.439703,Pacific Heights,16.0,SingleFamily,1908.0,15048610.0,94123.0
Address: 250 Bayview Circle,250 Bayview Cir,2.0,2.0,1301.0,12/08/2015,765000.0,37.73449,-122.396289,Silver Terrace,4.0,SingleFamily,1986.0,775303.0,94124.0
Address: 547 Campbell Avenue,547 Campbell Ave,1.0,3.0,1030.0,12/08/2015,600000.0,37.715323,-122.407298,Visitacion Valley,6.0,SingleFamily,1944.0,680264.0,94134.0
Address: 200 Townsend Street #45,200 Townsend St UNIT 45,2.0,1.0,856.0,12/07/2015,875000.0,37.778904,-122.393325,South of Market,4.0,Condominium,2003.0,885627.0,94107.0
Address: 3021 20th Street,3021 20th St,2.0,1.0,1267.0,12/07/2015,1100000.0,37.758878,-122.411147,Mission,4.0,Condominium,1890.0,1174143.0,94110.0
Address: 101 Lombard Street #116E,101 Lombard St APT 116E,1.0,1.0,1000.0,12/07/2015,800000.0,37.80347,-122.40409,Telegraph Hill,4.0,Condominium,1983.0,1014805.0,94111.0
Address: 2647 43rd Avenue,2647 43rd Ave,2.0,3.0,1232.0,12/07/2015,1050000.0,37.737279,-122.501408,Outer Parkside,7.0,SingleFamily,1948.0,1106340.0,94116.0
Address: 1475 37th Avenue,1475 37th Ave,1.5,2.0,1713.0,12/07/2015,1137500.0,37.759458,-122.496532,Outer Sunset,6.0,SingleFamily,1937.0,1176833.0,94122.0
Address: 3038 Pierce Street,3038 Pierce St,2.0,2.0,1150.0,12/07/2015,1150000.0,37.79814,-122.438775,Cow Hollow,5.0,Condominium,1906.0,1289640.0,94123.0
Address: 842 Monterey Boulevard,842 Monterey Blvd,1.5,4.0,1368.0,12/07/2015,935000.0,37.731787,-122.454448,Westwood Highlands,7.0,SingleFamily,1925.0,1824415.0,94127.0
Address: 2020 Stockton Street,2020 Stockton St,2.0,3.0,1786.0,12/07/2015,1900000.0,37.804563,-122.409793,Telegraph Hill,6.0,Condominium,1952.0,1892315.0,94133.0
Address: 412 Pioche Street,412 Pioche St,1.0,1.0,890.0,12/07/2015,710000.0,37.728074,-122.42273,Portola,4.0,SingleFamily,1942.0,701600.0,94134.0
Address: 332 Gambier Street,332 Gambier St,1.0,3.0,1435.0,12/07/2015,950000.0,37.725141,-122.42147,Portola,7.0,SingleFamily,1910.0,930093.0,94134.0
Address: 601 Van Ness Avenue #405,601 Van Ness Ave APT 405,2.0,2.0,881.0,12/04/2015,825000.0,37.781386,-122.421406,Van Ness - Civic Center,4.0,Condominium,1982.0,816228.0,94102.0
Address: 55 Page Street #415,55 Page St APT 415,1.0,1.0,750.0,12/04/2015,895000.0,37.773891,-122.421875,Van Ness - Civic Center,5.0,Condominium,2008.0,928057.0,94102.0
Address: 140 South Van Ness Avenue #631,140 S Van Ness Ave UNIT 631,2.0,2.0,1075.0,12/04/2015,895000.0,37.771585,-122.418825,South of Market,5.0,Condominium,2002.0,956434.0,94103.0
Address: 817 Carolina Street,817 Carolina St,1.0,3.0,1644.0,12/04/2015,1275000.0,37.758273,-122.399694,Potrero Hill,5.0,SingleFamily,1907.0,1585893.0,94107.0
Address: 1250 Jones Street #503,1250 Jones St APT 503,1.0,1.0,1250.0,12/04/2015,1405000.0,37.793071,-122.414049,Nob Hill,6.0,Condominium,1929.0,1465244.0,94109.0
Address: 725 Hampshire Street,725 Hampshire St,1.0,2.0,1740.0,12/04/2015,1575000.0,37.759765,-122.407671,Mission,5.0,SingleFamily,1900.0,1539238.0,94110.0
Address: 948 Hampshire Street,948 Hampshire St,1.0,0.0,1215.0,12/04/2015,3800000.0,37.756888,-122.407955,Mission,4.0,SingleFamily,1900.0,1000703.0,94110.0
Address: 924 Naples Street,924 Naples St,1.0,3.0,1500.0,12/04/2015,795000.0,37.715138,-122.435856,Excelsior,6.0,SingleFamily,1919.0,782650.0,94112.0
Address: 250 Concord Street,250 Concord St,3.0,4.0,1574.0,12/04/2015,815000.0,37.710141,-122.442063,Crocker Amazon,7.0,SingleFamily,1959.0,789721.0,94112.0
Address: 2299 Market Street #502,2299 Market St APT 502,1.0,1.0,691.0,12/04/2015,915000.0,37.764138,-122.433001,Eureka Valley - Dolores Heights - Castro,3.0,Condominium,2013.0,915444.0,94114.0
Address: 4365 23rd Street,4365 23rd St,2.0,3.0,1567.0,12/04/2015,2100000.0,37.752297,-122.440046,Noe Valley,6.0,SingleFamily,1939.0,1909656.0,94114.0
Address: 2075 Sutter Street #507,2075 Sutter St APT 507,2.0,2.0,1084.0,12/04/2015,1315000.0,37.785647,-122.434462,Lower Pacific Heights,5.0,Condominium,1992.0,1286169.0,94115.0
Address: 2013 Buchanan Street,2013 Buchanan St,2.0,3.0,2100.0,12/04/2015,1994000.0,37.788841,-122.430713,Lower Pacific Heights,6.0,Mobile,1999.0,2570413.0,94115.0
Address: 350 Broderick Street #226,350 Broderick St APT 226,2.0,2.0,928.0,12/04/2015,1095000.0,37.773649,-122.43887,North Panhandle,5.0,Condominium,2007.0,1120629.0,94117.0
Address: 710 Masonic Avenue,710 Masonic Ave,1.0,2.0,1244.9935222122876,12/04/2015,1175000.0,37.774719,-122.445912,North Panhandle,6.0,Condominium,1914.0,1197103.0,94117.0
Address: 2730 Clement Street,2730-2732 Clement St,2.0,4.0,3040.0,12/04/2015,1200000.0,37.782092,-122.488723,Central Richmond,12.0,MultiFamily2To4,1924.0,1630300.0,94121.0
Address: 1448 Oakdale Avenue,1448 Oakdale Ave,2.0,3.0,2066.0,12/04/2015,860000.0,37.733196,-122.38732,Bayview,7.0,SingleFamily,1910.0,847225.0,94124.0
Address: 450 Teresita Boulevard,450 Teresita Blvd,1.0,2.0,1464.0,12/04/2015,1090000.0,37.739963,-122.448495,Miraloma Park,6.0,SingleFamily,1939.0,1165170.0,94127.0
Address: 106 Circular Avenue,106 Circular Ave,1.0,2.0,1064.0,12/04/2015,728000.0,37.731109,-122.438211,Sunnyside,5.0,SingleFamily,1941.0,813834.0,94131.0
Address: 260 King Street #703,260 King St UNIT 703,2.0,2.0,1286.0,12/03/2015,1275000.0,37.777191,-122.393394,South of Market,4.0,MultiFamily2To4,2004.0,1332785.0,94107.0
Address: 1170 Sacramento Street #9B,1170 Sacramento St APT 9B,2.0,2.0,1961.0,12/03/2015,3800000.0,37.79293,-122.412195,Nob Hill,4.0,Condominium,1963.0,3696880.0,94108.0
Address: 2724 21st Street,2724 21st St,3.0,3.0,1897.0,12/03/2015,550000.0,37.757795,-122.409332,Mission,6.0,SingleFamily,1900.0,1642399.0,94110.0
Address: 580 Prentiss Street,580 Prentiss St,1.0,2.0,918.0,12/03/2015,950000.0,37.736075,-122.412513,Bernal Heights,5.0,SingleFamily,1951.0,999085.0,94110.0
Address: 1146 Capitol Avenue,1146 Capitol Ave,4.0,4.0,1717.0,12/16/2015,1006000.0,37.72271,-122.45889,Ingleside,8.0,SingleFamily,1922.0,1063648.0,94112.0
Address: 4677 18th Street,4677 18th St,2.0,3.0,1718.0,12/03/2015,1566000.0,37.760155,-122.442855,Eureka Valley - Dolores Heights - Castro,5.0,Condominium,1905.0,1597067.0,94114.0
Address: 2270 9th Avenue,2270 9th Ave,3.5,4.0,3548.0,12/03/2015,2150000.0,37.747082,-122.466367,Forest Hill,7.0,SingleFamily,1935.0,2433771.0,94116.0
Address: 1260 Haight Street #5,1260 Haight St APT 5,1.0,2.0,1082.0,12/03/2015,1050000.0,37.770785,-122.44309,Haight-Ashbury,4.0,SingleFamily,1928.0,1081810.0,94117.0
Address: 560 Haight Street #102,560 Haight St APT 102,2.0,2.0,1034.0,12/03/2015,1175000.0,37.772335,-122.43137,Hayes Valley,5.0,Condominium,2001.0,1371928.0,94117.0
Address: 574 18th Avenue,574 18th Ave,1.5,3.0,2050.0,12/03/2015,1835000.0,37.777141,-122.476669,Central Richmond,8.0,SingleFamily,1916.0,1784008.0,94121.0
Address: 1618 38th Avenue,1618 38th Ave,1.0,3.0,1775.0,12/03/2015,1200000.0,37.756672,-122.496738,Outer Sunset,6.0,SingleFamily,1941.0,1179463.0,94122.0
Address: 2651 15th Avenue,2651 15th Ave,2.0,3.0,2057.0,12/03/2015,1500000.0,37.738534,-122.471369,Inner Parkside,5.0,SingleFamily,1948.0,1532588.0,94127.0
Address: 315 Arlington Street,315 Arlington St,1.0,2.0,1147.0,12/04/2015,1000000.0,37.736404,-122.427276,Glen Park,6.0,Condominium,1910.0,1047975.0,94131.0
Address: 6 Mint Plaza #601A,6 Mint Plz APT 601A,1.0,1.0,606.0,12/02/2015,840000.0,37.78308,-122.407541,South of Market,4.0,Condominium,1900.0,813252.0,94103.0
Address: 1840 Washington Street #603,1840 Washington St APT 603,1.0,1.0,837.0,12/02/2015,1050000.0,37.793212,-122.423744,Pacific Heights,3.0,Condominium,2012.0,983539.0,94109.0
Address: 79 Bradford Street,79 Bradford St,2.0,2.0,900.0,12/02/2015,875000.0,37.741748,-122.409262,Bernal Heights,4.0,SingleFamily,1933.0,994097.0,94110.0
Address: 204 Anderson Street,204 Anderson St,2.0,2.0,1140.0,12/02/2015,1425500.0,37.74023,-122.415369,Bernal Heights,5.0,SingleFamily,1928.0,1334194.0,94110.0
Address: 3942 Folsom Street,3942 Folsom St,2.5,3.0,860.0,12/02/2015,1800000.0,37.737742,-122.41361,Bernal Heights,5.0,SingleFamily,1908.0,1293511.0,94110.0
Address: 136 Seville Street,136 Seville St,2.0,3.0,1257.0,12/02/2015,890000.0,37.71167,-122.436488,Crocker Amazon,6.0,SingleFamily,1921.0,876388.0,94112.0
Address: 32 Yukon Street,32 Yukon St,1.0,2.0,1119.0,12/02/2015,1225000.0,37.759138,-122.442427,Eureka Valley - Dolores Heights - Castro,5.0,Condominium,1949.0,1145065.0,94114.0
Address: 3515 Washington Street,3515 Washington St,3.0,2.0,2760.0,12/02/2015,3800000.0,37.789217,-122.450906,Presidio Heights,8.0,SingleFamily,1941.0,4633459.0,94118.0
Address: 1755 11th Avenue,1755 11th Ave,1.5,2.0,1250.0,12/02/2015,1002000.0,37.755442,-122.468189,Inner Sunset,5.0,SingleFamily,1924.0,1161628.0,94122.0
Address: 1863 32nd Avenue,1863 32nd Ave,2.0,2.0,1150.0,12/02/2015,1099000.0,37.752439,-122.490647,Central Sunset,5.0,SingleFamily,1941.0,1069824.0,94122.0
Address: 15 Teresita Boulevard #14,15 Teresita Blvd APT 14,2.0,2.0,886.0,12/02/2015,691000.0,37.745036,-122.45174,Miraloma Park,4.0,Condominium,1990.0,679867.0,94127.0
Address: 47 Colby Street,47 Colby St,1.0,2.0,1655.0,12/03/2015,1038000.0,37.729916,-122.414496,Portola,6.0,SingleFamily,1937.0,1244215.0,94134.0
Address: 601 Van Ness Avenue #605,601 Van Ness Ave APT 605,2.0,2.0,1072.0,12/01/2015,825000.0,37.781386,-122.421406,Van Ness - Civic Center,5.0,Condominium,1982.0,858107.0,94102.0
Address: 1160 Mission Street #904,1160 Mission St UNIT 904,1.0,1.0,765.0,12/01/2015,790000.0,37.778705,-122.412635,South of Market,3.0,Condominium,2008.0,827714.0,94103.0
Address: 250 King Street #410,250 King St UNIT 410,1.0,1.0,822.0,12/01/2015,759000.0,37.777645,-122.39343,South of Market,3.0,Condominium,2004.0,826011.0,94107.0
Address: 451 Kansas Street #448,451 Kansas St UNIT 448,2.5,2.0,1030.0,12/01/2015,1155000.0,37.764114,-122.402984,Potrero Hill,4.0,Townhouse,2007.0,1144164.0,94107.0
Address: 1177 California Street #304,1177 California St APT 304,1.0,1.0,645.0,12/01/2015,790000.0,37.791089,-122.413658,Downtown,3.0,Condominium,1977.0,746138.0,94108.0
Address: 723 Taylor Street #501,723 Taylor St # 501,1.0,1.0,677.0,12/02/2015,798000.0,37.789192,-122.412231,Downtown,3.0,Condominium,2010.0,818427.0,94108.0
Address: 1 Daniel Burnham Court #1202,1 Daniel Burnham Ct APT 1202,1.0,1.0,772.0,12/01/2015,795000.0,37.786755,-122.4225,Van Ness - Civic Center,3.0,Condominium,1988.0,787316.0,94109.0
Address: 1355 Pacific Avenue #403,1355 Pacific Ave UNIT 403,1.0,1.0,880.0,12/01/2015,1225000.0,37.795295,-122.417541,Nob Hill,4.0,Condominium,2010.0,1117913.0,94109.0
Address: 1051 Francisco Street,1051-1053 Francisco St,6.0,5.0,4650.0,12/01/2015,9708000.0,37.803239,-122.422458,Russian Hill,11.0,MultiFamily2To4,1953.0,9071783.0,94109.0
Address: 3660 Folsom Street,3660 Folsom St,3.0,3.0,650.0,12/01/2015,1950000.0,37.740726,-122.413458,Bernal Heights,4.0,SingleFamily,1902.0,1448956.0,94110.0
Address: 4217 22nd Street,4217 22nd St,2.0,2.0,1913.0,12/01/2015,1800000.0,37.754011,-122.43917,Noe Valley,5.0,SingleFamily,1908.0,1880933.0,94114.0
Address: 4069 25th Street,4069 25th St,1.5,5.0,1837.0,12/01/2015,4100000.0,37.749628,-122.430985,Noe Valley,8.0,SingleFamily,1905.0,3997153.0,94114.0
Address: 2015 Pine Street #A,2015 Pine St # A,1.0,1.0,708.0,12/01/2015,795000.0,37.788219,-122.429286,Lower Pacific Heights,3.0,Condominium,1900.0,791001.0,94115.0
Address: 2223 27th Avenue,2223 27th Ave,2.0,3.0,2378.0,12/01/2015,1600000.0,37.745903,-122.48482,Parkside,6.0,SingleFamily,1940.0,1479369.0,94116.0
Address: 365 Magellan Avenue,365 Magellan Ave,3.5,5.0,3094.0,12/01/2015,2350000.0,37.744952,-122.46311,Forest Hill,8.0,SingleFamily,1926.0,2215983.0,94116.0
Address: 978 Clayton Street,978 Clayton St,1.0,2.0,1585.0,12/01/2015,1800000.0,37.76421,-122.44703,Parnassus - Ashbury,5.6058040879131426,Condominium,1924.0,1741028.0,94117.0
Address: 623 23rd Avenue,623 23rd Ave,1.0,2.0,1085.0,12/01/2015,955000.0,37.775847,-122.482595,Central Richmond,5.0,SingleFamily,1920.0,1001412.0,94121.0
Address: 760 35th Avenue,760 35th Ave,5.0,8.0,3905.0,12/01/2015,1810000.0,37.774688,-122.494764,Outer Richmond,13.0,SingleFamily,1965.0,2123278.0,94121.0
Address: 55 Mangels Avenue,55 Mangels Ave,2.0,3.0,1480.0,12/01/2015,1450000.0,37.73288,-122.438822,Glen Park,5.0,SingleFamily,1957.0,1524345.0,94131.0
Address: 1015 Rhode Island Street,1015 Rhode Island St,4.0,4.0,2381.0,11/30/2015,1995000.0,37.756469,-122.401462,Potrero Hill,9.0,SingleFamily,1938.0,2427297.0,94107.0
Address: 1268 Dolores Street,1268 Dolores St,2.0,2.0,1850.0,11/30/2015,1438000.0,37.749056,-122.425024,Eureka Valley - Dolores Heights - Castro,5.0,Condominium,2012.0,1512071.0,94110.0
Address: 73 Carver Street,73 Carver St,2.0,3.0,1325.0,11/30/2015,1525000.0,37.742053,-122.409855,Bernal Heights,5.0,SingleFamily,1951.0,1586644.0,94110.0
Address: 28 Raleigh Avenue,28 Raleigh Ave,1.0,2.0,1110.3391184531501,11/30/2015,900000.0,37.727461,-122.442447,Mission Terrace,4.0,SingleFamily,1926.0,796260.0,94112.0
Address: 34 Pope Street,34 Pope St,2.0,5.0,2083.0,11/30/2015,920000.0,37.714288,-122.441638,Crocker Amazon,8.0,SingleFamily,1991.0,930271.0,94112.0
Address: 2471 43rd Avenue,2471 43rd Ave,1.0,2.0,1275.0,11/30/2015,905000.0,37.740591,-122.501641,Outer Parkside,4.0,SingleFamily,1940.0,861602.0,94116.0
Address: 2047 44th Avenue,2047 44th Ave,1.0,2.0,1214.0,11/30/2015,1003000.0,37.748414,-122.503266,Outer Parkside,5.0,SingleFamily,1946.0,1017376.0,94116.0
Address: 2745 Ulloa Street,2745 Ulloa St,2.5,4.0,1303.0,11/30/2015,1180000.0,37.740517,-122.485872,Parkside,5.0,SingleFamily,1974.0,1099243.0,94116.0
Address: 120 Oshaughnessy Boulevard,120 Oshaughnessy Blvd,1.0,3.0,1300.0,11/30/2015,990000.0,37.743896,-122.450674,Miraloma Park,6.0,SingleFamily,1952.0,1143720.0,94127.0
Address: 280 Dalewood Way,280 Dalewood Way,2.5,3.0,1941.0,11/30/2015,1275000.0,37.738566,-122.458678,Miraloma Park,6.0,SingleFamily,1966.0,1490489.0,94127.0
Address: 44 MacOndray Lane #2E,44 Macondray Ln APT 2E,2.0,2.0,1165.0,11/30/2015,1295000.0,37.799474,-122.414835,Russian Hill,4.0,Condominium,1980.0,1404677.0,94133.0
Address: 267 Clipper Street,267 Clipper St,1.0,3.0,1310.0,11/30/2015,1725000.0,37.748821,-122.430969,Noe Valley,6.0,SingleFamily,1900.0,1728182.0,94114.0
Address: 631 Folsom Street #12B,631 Folsom St APT 12B,2.0,2.0,1054.0,11/25/2015,1275000.0,37.784713,-122.396873,Yerba Buena,5.0,Condominium,2009.0,1439920.0,94107.0
Address: 1080 Sutter Street #1003,1080 Sutter St APT 1003,1.0,2.0,753.0,11/25/2015,770000.0,37.788066,-122.418065,Downtown,4.0,Condominium,2013.0,815936.0,94109.0
Address: 1770 Pacific Avenue #103,1770 Pacific Ave APT 103,2.0,2.0,1500.0,11/25/2015,1760000.0,37.794927,-122.424508,Pacific Heights,8.0,Condominium,1902.0,1563027.0,94109.0
Address: 268 Thrift Street,268 Thrift St,1.0,2.0,1000.0,11/25/2015,750000.0,37.717704,-122.461487,Oceanview,4.0,SingleFamily,1953.0,770191.0,94112.0
Address: 70 Cotter Street,70 Cotter St,1.0,3.0,1290.0,11/25/2015,850000.0,37.728033,-122.434204,Mission Terrace,6.0,SingleFamily,1909.0,888201.0,94112.0
Address: 1142 Prague Street,1142 Prague St,2.0,0.0,1770.0,11/25/2015,981000.0,37.71029,-122.43885,Crocker Amazon,7.0,SingleFamily,1946.0,933525.0,94112.0
Address: 1264 Noe Street,1264 Noe St,1.0,2.0,1078.0,11/25/2015,1250000.0,37.748729,-122.431892,Noe Valley,6.0,Condominium,1910.0,1209580.0,94114.0
Address: 46 Presidio Avenue,46 Presidio Ave,4.0,4.0,2750.0,11/25/2015,3900000.0,37.79125,-122.447325,Pacific Heights,9.0,SingleFamily,1916.0,4367329.0,94115.0
Address: 2780 Broadway Street,2780 Broadway St,6.0,5.0,6800.0,11/25/2015,17100000.0,37.79358,-122.442803,Pacific Heights,13.0,SingleFamily,1962.0,15533253.0,94115.0
Address: 2466 18th Avenue,2466 18th Ave,1.0,2.0,1150.0,11/25/2015,1025000.0,37.74187,-122.474209,Inner Parkside,5.0,SingleFamily,1923.0,1003995.0,94116.0
Address: 326 29th Avenue,326 29th Ave,1.0,3.0,1675.0,11/25/2015,1500000.0,37.783151,-122.488922,Central Richmond,6.0,SingleFamily,1910.0,1598367.0,94121.0
Address: 215 Red Rock Way #306J,215 Red Rock Way APT 306J,1.0,1.0,744.0,11/25/2015,599000.0,37.745639,-122.442432,Diamond Heights,3.0,Condominium,1972.0,634315.0,94131.0
Address: 414 Shields Street,414 Shields St,1.0,2.0,781.0,11/25/2015,835000.0,37.718115,-122.46656,Merced Heights,4.0,SingleFamily,1946.0,835998.0,94132.0
Address: 451 Kansas Street #631,451 Kansas St UNIT 631,2.0,2.0,928.0,11/24/2015,1149000.0,37.76408,-122.403289,Potrero Hill,4.0,Condominium,2007.0,1162784.0,94107.0
Address: 1353 Green Street,1353 Green St,2.0,2.0,1764.0,11/24/2015,2300000.0,37.797685,-122.421335,Russian Hill,5.0,Condominium,1941.0,1838186.0,94109.0
Address: 116 Eugenia Avenue,116 Eugenia Ave,1.0,2.0,1075.0,11/24/2015,975000.0,37.741436,-122.42062,Bernal Heights,6.0,SingleFamily,1900.0,1000482.0,94110.0
Address: 10 Carmel Street,10 Carmel St,5.5,4.0,1960.0,11/24/2015,2377500.0,37.761104,-122.446788,Parnassus - Ashbury,6.0,Condominium,1915.0,2309162.0,94117.0
Address: 149 Seal Rock Drive,149 Seal Rock Dr,1.0,2.0,1275.0,11/24/2015,700000.0,37.780446,-122.508816,Outer Richmond,5.0,SingleFamily,1941.0,821623.0,94121.0
Address: 1259 18th Avenue,1259 18th Ave,3.0,3.0,2236.0,11/24/2015,1500000.0,37.764358,-122.476436,Inner Sunset,7.0,SingleFamily,1924.0,1599087.0,94122.0
Address: 1310 10th Avenue,1310 10th Ave,3.0,3.0,1880.0,11/24/2015,1830000.0,37.763697,-122.467077,Inner Sunset,6.0,SingleFamily,1908.0,1766769.0,94122.0
Address: 447 Country Club Drive,447 Country Club Dr,1.75,3.0,1050.0,12/28/2015,928000.0,37.730962,-122.495345,Lakeshore,9.0,SingleFamily,1954.0,1045587.0,94132.0
Address: 1234 Howard Street #2B3,1234 Howard St # 2B3,1.0,1.0,888.0,11/23/2015,960000.0,37.775993,-122.412506,South of Market,4.0,Condominium,2007.0,939767.0,94103.0
Address: 956 South Van Ness Avenue,956 S Van Ness Ave,4.0,4.0,3500.0,11/23/2015,2674000.0,37.757832,-122.417139,Mission,13.0,SingleFamily,1872.0,3066173.0,94110.0
Address: 80 Danton Street,80 Danton St,3.0,3.0,2000.0,11/23/2015,1610000.0,37.73108,-122.432626,Mission Terrace,12.0,SingleFamily,1906.0,1370005.0,94112.0
Address: 2921 Washington Street #5,2921 Washington St APT 5,1.0,1.0,1070.0,11/23/2015,1000000.0,37.790535,-122.441409,Pacific Heights,4.0,Condominium,1916.0,1052698.0,94115.0
Address: 1727 34th Avenue,1727 34th Ave,2.0,3.0,1845.0,11/23/2015,1335000.0,37.754831,-122.492968,Central Sunset,6.0,SingleFamily,1940.0,1227042.0,94122.0
Address: 501 Junipero Serra Boulevard,501 Junipero Serra Blvd,2.0,4.0,2115.6881171538553,11/23/2015,1700000.0,37.728731,-122.471256,Ingleside Terrace,9.0,SingleFamily,1924.0,1685293.0,94127.0
Address: 130 Chilton Avenue,130 Chilton Ave,1.0,2.0,728.0,11/23/2015,1060000.0,37.73361,-122.437073,Glen Park,4.0,SingleFamily,1925.0,987790.0,94131.0
Address: 681 Panorama Drive,681 Panorama Dr,2.0,3.0,1237.0,11/23/2015,1204000.0,37.753465,-122.452131,Midtown Terrace,6.0,SingleFamily,1957.0,1032741.0,94131.0
Address: 179 Topaz Way,179 Topaz Way,4.5,4.0,3692.0,11/23/2015,2375000.0,37.74008,-122.437123,Diamond Heights,7.0,SingleFamily,1973.0,2300524.0,94131.0
Address: 59 Rodgers Street #B,59 Rodgers St # B,1.0,1.0,800.0,11/20/2015,800000.0,37.77507,-122.408775,South of Market,2.0,Condominium,2000.0,794106.0,94103.0
Address: 1488 Harrison Street #103,1488 Harrison St APT 103,2.0,1.0,1102.0,11/20/2015,900000.0,37.770933,-122.412421,South of Market,6.0,Condominium,2001.0,936047.0,94103.0
Address: 39 Boardman Place #101,39 Boardman Pl APT 101,1.5,1.0,1255.0,11/20/2015,905000.0,37.774794,-122.402799,South of Market,4.0,Condominium,1996.0,961067.0,94103.0
Address: 260 King Street #769,260 King St UNIT 769,1.0,1.0,748.0,11/20/2015,815000.0,37.777191,-122.393394,South of Market,4.0,Condominium,2004.0,823018.0,94107.0
Address: 1895 Pacific Avenue #506,1895 Pacific Ave APT 506,1.0,1.0,1165.0,11/20/2015,975000.0,37.794168,-122.426243,Pacific Heights,4.0,Condominium,1931.0,1043225.0,94109.0
Address: 38 Sadowa Street,38 Sadowa St,2.5,3.0,1360.0,11/20/2015,720000.0,37.712576,-122.455284,Oceanview,5.0,SingleFamily,1910.0,699028.0,94112.0
Address: 115 Sickles Avenue,115 Sickles Ave,1.0,3.0,1750.0,11/20/2015,765000.0,37.709197,-122.453677,Outer Mission,6.0,SingleFamily,1913.0,618352.0,94112.0
Address: 305 Guttenberg Street,305 Guttenberg St,2.5,4.0,1655.0,11/20/2015,828000.0,37.709222,-122.442361,Crocker Amazon,7.0,SingleFamily,1964.0,732383.0,94112.0
Address: 1874 San Jose Avenue,1874 San Jose Ave,2.0,3.0,1771.0,11/20/2015,975000.0,37.727313,-122.441507,Mission Terrace,6.0,SingleFamily,1937.0,1003029.0,94112.0
Address: 152 Eureka Street,152 Eureka St,2.0,4.0,2280.0,11/20/2015,2400000.0,37.759797,-122.438496,Eureka Valley - Dolores Heights - Castro,7.0,SingleFamily,1932.0,2399004.0,94114.0
Address: 2514 40th Avenue,2514 40th Ave,2.0,3.0,1490.0,11/20/2015,1020000.0,37.739858,-122.497704,Outer Parkside,5.0,SingleFamily,1945.0,1044287.0,94116.0
Address: 2279 47th Avenue,2279 47th Ave,3.0,4.0,2570.0,11/20/2015,1030000.0,37.743999,-122.506182,Outer Parkside,8.0,SingleFamily,1900.0,1243407.0,94116.0
Address: 521 Magellan Avenue,521 Magellan Ave,1.0,2.0,1216.0,11/20/2015,1509000.0,37.744034,-122.466614,Forest Hill,5.0,SingleFamily,1920.0,1299796.0,94116.0
Address: 270 Ewing Terrace,270 Ewing Ter,1.0,2.0,1250.0,11/20/2015,1575000.0,37.779676,-122.449096,Lone Mountain,5.0,SingleFamily,1940.0,1090437.0,94118.0
Address: 591 29th Avenue,591 29th Ave,2.5,3.0,1800.0,11/20/2015,1750000.0,37.778174,-122.489141,Central Richmond,7.0,SingleFamily,1936.0,1616924.0,94121.0
Address: 1466 44th Avenue,1466 44th Ave,1.0,2.0,1130.0,11/20/2015,892000.0,37.759294,-122.50337,Outer Sunset,5.0,SingleFamily,1926.0,912644.0,94122.0
Address: 1422 42nd Avenue,1422 42nd Ave,1.0,3.0,1325.0,11/20/2015,1220000.0,37.760143,-122.501274,Outer Sunset,6.0,SingleFamily,1951.0,1018675.0,94122.0
Address: 1795 Green Street,1795 Green St,2.0,3.0,1647.0,11/20/2015,2500000.0,37.79678,-122.428519,Pacific Heights,6.0,Condominium,1908.0,2449407.0,94123.0
Address: 52 Marne Avenue,52 Marne Ave,2.5,4.0,1648.0,11/20/2015,1300000.0,37.739544,-122.459379,Miraloma Park,6.0,SingleFamily,1926.0,1535046.0,94127.0
Address: 80 Edgehill Way,80 Edgehill Way,4.0,4.0,3495.0,11/20/2015,2385000.0,37.742482,-122.460233,Forest Hill Extension,9.0,SingleFamily,1960.0,2492554.0,94127.0
Address: 277 Bemis Street,277 Bemis St,1.0,2.0,950.0,11/20/2015,1150000.0,37.73585,-122.432123,Glen Park,4.0,SingleFamily,1956.0,1073212.0,94131.0
Address: 404 Gold Mine Drive,404 Gold Mine Dr,3.0,4.0,2271.0,11/20/2015,1555000.0,37.739284,-122.438555,Diamond Heights,9.0,SingleFamily,1967.0,1745477.0,94131.0
Address: 3981 Alemany Boulevard #206,3981 Alemany Blvd APT 206,1.0,1.0,670.0,11/20/2015,515000.0,37.71048,-122.467645,Ingleside Heights,3.0,Condominium,2002.0,524993.0,94132.0
Address: 101 Crescent Way #2102,101 Crescent Way APT 2102,2.0,2.0,1063.0,11/20/2015,488000.0,37.710918,-122.389238,Bayview,5.0,Condominium,2001.0,524284.0,94134.0
Address: 155 Somerset Street,155 Somerset St,1.0,2.0,1550.0,11/20/2015,975000.0,37.72958,-122.408459,Portola,5.0,SingleFamily,1937.0,955168.0,94134.0
Address: 262 Castro Street,262 Castro St,2.0,2.0,848.0,11/20/2015,1700000.0,37.764602,-122.435716,Corona Heights,4.0,SingleFamily,1906.0,1594736.0,94114.0
Address: 1483 Sutter Street #1102,1483 Sutter St APT 1102,1.0,1.0,650.0,11/19/2015,690000.0,37.78675,-122.424235,Van Ness - Civic Center,3.0,Condominium,1993.0,768118.0,94109.0
Address: 630 Precita Avenue,630 Precita Ave,2.0,5.0,1675.0,11/19/2015,1083500.0,37.747591,-122.40874,Bernal Heights,8.0,SingleFamily,1905.0,1142972.0,94110.0
Address: 1573 34th Avenue,1573 34th Ave,2.0,3.0,2400.0,11/19/2015,1625000.0,37.757766,-122.493171,Central Sunset,6.0,SingleFamily,1933.0,1532245.0,94122.0
Address: 315 Moraga Street,315 Moraga St,3.0,3.0,1942.0,11/19/2015,1667500.0,37.756514,-122.466064,Inner Sunset,8.0,Condominium,2012.0,1644536.0,94122.0
Address: 2091 Bancroft Avenue,2091 Bancroft Ave,3.0,4.0,2350.0,11/19/2015,860000.0,37.730545,-122.402057,Silver Terrace,8.0,SingleFamily,1992.0,925228.0,94124.0
Address: 501 Beale Street #9H,501 Beale St UNIT 9H,2.0,2.0,1161.0,11/18/2015,1950100.0,37.786235,-122.389068,South Beach,4.0,Condominium,2006.0,1871691.0,94105.0
Address: 2600 18th Street #22,2600 18th St STE 22,2.0,2.0,1662.0,11/18/2015,1250000.0,37.762136,-122.408479,Mission,5.0,Condominium,1999.0,1396082.0,94110.0
Address: 797 Athens Street,797 Athens St,1.0,2.0,925.0,11/18/2015,570000.0,37.715461,-122.432755,Excelsior,4.0,SingleFamily,1908.0,607213.0,94112.0
Address: 356 20th Avenue,356 20th Ave,3.0,4.0,2256.0,11/18/2015,1650000.0,37.781204,-122.479389,Central Richmond,8.0,Condominium,2010.0,1703937.0,94121.0
Address: 1459 31st Avenue,1459 31st Ave,2.0,4.0,2281.0,11/18/2015,1290000.0,37.760017,-122.490103,Central Sunset,8.0,SingleFamily,1937.0,1433149.0,94122.0
Address: 1216 28th Avenue,1216 28th Ave,2.5,5.0,2666.0,11/18/2015,2021500.0,37.764647,-122.486547,Central Sunset,8.0,SingleFamily,1924.0,1777681.0,94122.0
Address: 76 Jennings Court,76 Jennings Ct,2.0,3.0,1212.0,11/18/2015,575000.0,37.717061,-122.397018,Bayview,6.0,Condominium,1995.0,621200.0,94124.0
Address: 656 Teresita Boulevard,656 Teresita Blvd,2.0,3.0,1218.0,11/18/2015,1230000.0,37.736383,-122.446101,Miraloma Park,6.0,SingleFamily,1940.0,1102489.0,94127.0
Address: 5553 Diamond Heights Boulevard,5553 Diamond Heights Blvd,2.5,3.0,1890.0,11/18/2015,1220000.0,37.738774,-122.43632,Glen Park,6.0,SingleFamily,1969.0,2059428.0,94131.0
Address: 147 Stillings Avenue,147 Stillings Ave,2.0,3.0,1700.0,11/18/2015,1300000.0,37.734342,-122.443147,Miraloma Park,5.0,SingleFamily,1942.0,1284085.0,94131.0
Address: 1070 Green Street #201,1070 Green St APT 201,2.0,2.0,1465.0,11/18/2015,2900000.0,37.798792,-122.416797,Russian Hill,5.0,Condominium,1963.0,2516327.0,94133.0
Address: 380 10th Street #27,380 10th St UNIT 27,2.0,2.0,1305.0,11/17/2015,1150000.0,37.771683,-122.411809,South of Market,5.0,Condominium,2004.0,1139493.0,94103.0
Address: 2250 24th Street #223,2250 24th St APT 223,1.0,2.0,839.0,11/17/2015,640000.0,37.753905,-122.40202,Potrero Hill,4.0,Condominium,1989.0,690834.0,94107.0
Address: 3615 22nd Street,3615 22nd St,2.5,3.0,1519.0,11/17/2015,1475000.0,37.754704,-122.428164,Eureka Valley - Dolores Heights - Castro,7.0,Condominium,1911.0,1605525.0,94114.0
Address: 429 Liberty Street,429 Liberty St,2.0,2.0,1990.0,11/17/2015,2650000.0,37.756871,-122.430875,Eureka Valley - Dolores Heights - Castro,7.0,SingleFamily,1907.0,2842968.0,94114.0
Address: 22 22nd Avenue,162 22nd Ave,1.5,2.0,2250.0,01/03/2013,1310000.0,37.784735,-122.481516,Lake,7.0,SingleFamily,1914.0,2081890.0,94121.0
Address: 1314 Palou Avenue,1314 Palou Ave,3.0,4.0,1275.0,11/17/2015,780000.0,37.731189,-122.385454,Bayview,5.0,SingleFamily,1941.0,725765.0,94124.0
Address: 1635 Plymouth Avenue,1635 Plymouth Ave,3.0,4.0,2754.0,11/17/2015,1800000.0,37.731667,-122.457878,Westwood Highlands,7.0,SingleFamily,1925.0,1967750.0,94127.0
Address: 256 Glenview Drive,256 Glenview Dr,2.0,3.0,1213.0,11/17/2015,1192500.0,37.748056,-122.445877,Midtown Terrace,6.0,SingleFamily,1958.0,1182902.0,94131.0
Address: 125 Gilbert Street #17,125 Gilbert St APT 17,1.5,1.0,1047.0,11/16/2015,875000.0,37.773223,-122.401916,South of Market,1.0,Condominium,1996.0,955875.0,94103.0
Address: 301 Main Street #T23C,301 Main St # T23C,1.0,1.0,809.0,11/16/2015,1425000.0,37.789333,-122.391698,South Beach,3.0,Condominium,2008.0,1329967.0,94105.0
Address: 88 King Street #419,88 King St APT 419,2.0,2.0,1115.0,11/16/2015,1250000.0,37.78063,-122.389635,South Beach,4.0,Condominium,2000.0,1321678.0,94107.0
Address: 177 Townsend Street #527,177 Townsend St UNIT 527,2.0,2.0,1019.0,11/16/2015,1300000.0,37.77898,-122.391754,South Beach,4.0,Condominium,2007.0,1295929.0,94107.0
Address: 260 King Street #1205,260 King St UNIT 1205,2.0,2.0,1488.0,11/16/2015,1475000.0,37.777191,-122.393394,South of Market,4.0,Condominium,2004.0,1540566.0,94107.0
Address: 1101 Green Street #303,1101 Green St # 303,1.0,2.0,1003.0,11/16/2015,1210000.0,37.798234,-122.417394,Russian Hill,4.0,Condominium,1930.0,1152176.0,94109.0
Address: 1257 Dolores Street #A,1257 Dolores St # A,1.0,1.0,950.0,11/16/2015,860000.0,37.749335,-122.424491,Mission,5.0,Condominium,1910.0,949478.0,94110.0
Address: 1912 Golden Gate Avenue,1912 Golden Gate Ave,2.0,3.0,1154.0,11/16/2015,1775000.0,37.7785,-122.442563,North Panhandle,5.0,SingleFamily,1900.0,1688140.0,94115.0
Address: 2440 Bush Street #C,2440 Bush St # C,2.5,3.0,1810.0,11/16/2015,2000000.0,37.786788,-122.437531,Lower Pacific Heights,9.0,Condominium,1985.0,2150700.0,94115.0
Address: 2955 Pacific Avenue,2955 Pacific Ave,2.0,3.0,2160.0,11/16/2015,3650000.0,37.7919,-122.443975,Pacific Heights,6.0,Condominium,1995.0,3710575.0,94115.0
Address: 472 12th Avenue,472 12th Ave,1.0,2.0,1508.0,11/16/2015,1250000.0,37.779371,-122.470275,Inner Richmond,6.0,Condominium,1931.0,1241797.0,94118.0
Address: 2341 Francisco Street,2341 Francisco St,3.0,2.0,1500.0,11/16/2015,1575000.0,37.800533,-122.44374,Marina,5.0,Condominium,1927.0,1674301.0,94123.0
Address: 15 Scotia Avenue,15 Scotia Ave,2.0,3.0,1482.0,11/16/2015,868000.0,37.734337,-122.401708,Silver Terrace,5.0,SingleFamily,1936.0,825542.0,94124.0
Address: 48 Dellbrook Avenue,48 Dellbrook Ave,1.0,2.0,1056.0,11/16/2015,850000.0,37.74992,-122.454366,Midtown Terrace,5.0,SingleFamily,1956.0,956966.0,94131.0
Address: 288 Bemis Street,288 Bemis St,2.0,2.0,1263.0,11/16/2015,1450000.0,37.736136,-122.432406,Glen Park,6.0,SingleFamily,1908.0,1784445.0,94131.0
Address: 400 Head Street,400 Head St,1.0,2.0,1162.0,11/16/2015,700000.0,37.71444,-122.464169,Ingleside Heights,5.0,SingleFamily,1946.0,680365.0,94132.0
Address: 1360 Montgomery Street #1,1360 Montgomery St APT 1,1.0,1.0,552.0,11/16/2015,720000.0,37.801802,-122.404269,Telegraph Hill,2.0,Condominium,1937.0,698751.0,94133.0
Address: 1150 Bowdoin Street,1150 Bowdoin St,1.0,3.0,924.0,11/16/2015,770000.0,37.72152,-122.409051,Portola,7.0,SingleFamily,1951.0,810876.0,94134.0
Address: 300 Berry Street #1212,300 Berry St UNIT 1212,2.0,2.0,966.0,11/16/2015,1230000.0,37.773929,-122.39624,South of Market,5.0,Condominium,2009.0,1223892.0,94158.0
Address: 1839 15th Street #356,1839 15th St APT 356,1.0,1.0,760.0545196051826,11/13/2015,853000.0,37.765474,-122.424915,Mission,3.0,Condominium,1983.0,853621.0,94103.0
Address: 425 14th Street #4,425 14th St APT 4,2.5,2.0,1328.0,11/13/2015,1500000.0,37.767836,-122.422803,Mission,6.0,Condominium,2001.0,1415981.0,94103.0
Address: 2548 Hyde Street,2548 Hyde St,1.5,3.0,1362.0,11/13/2015,1535000.0,37.804429,-122.420036,Russian Hill,6.0,Condominium,1908.0,1482594.0,94109.0
Address: 955 Excelsior Avenue,955 Excelsior Ave,4.0,4.0,2134.0,11/13/2015,1150000.0,37.722655,-122.425573,Excelsior,7.0,SingleFamily,2005.0,1101281.0,94112.0
Address: 849 Sanchez Street,849 Sanchez St,3.5,3.0,2935.0,11/13/2015,4100000.0,37.75572,-122.429819,Eureka Valley - Dolores Heights - Castro,9.0,SingleFamily,1938.0,4247389.0,94114.0
Address: 724 Masonic Avenue,724A Masonic Ave # A,1.0,1.0,420.0,02/28/2014,412000.0,37.774444,-122.445869,North Panhandle,2.0,Condominium,1912.0,612282.0,94117.0
Address: 286 27th Avenue,286 27th Ave,1.0,2.0,1367.0,11/13/2015,950000.0,37.784078,-122.48693,Lake,5.0,Condominium,1924.0,1061669.0,94121.0
Address: 1351 10th Avenue,1351 10th Ave,1.0,2.0,1152.0,11/13/2015,1665000.0,37.76301,-122.467642,Inner Sunset,5.0,SingleFamily,1940.0,1543221.0,94122.0
Address: 1027 Ingerson Avenue,1027 Ingerson Ave,2.0,3.0,1430.0,11/13/2015,375000.0,37.719206,-122.393725,Bayview,7.0,SingleFamily,1929.0,662438.0,94124.0
